altitude,availableBikes,availableDocks,city,id,is_renting,kioskType,landMark,lastCommunicationTime,latitude,location,longitude,postalCode,stAddress1,stAddress2,stationName,status,statusKey,statusValue,testStation,totalDocks
0,11,28,Chicago,2,True,K3_FULL,15541,2019-05-16 13:54:17,41.87647,,-87.62034,60605,Buckingham Fountain,,Buckingham Fountain,IN_SERVICE,1,In Service,False,39
0,5,50,Chicago,3,True,K3_FULL,15544,2019-05-16 13:55:33,41.86722595682,,-87.6153553902,0,Shedd Aquarium,,Shedd Aquarium,IN_SERVICE,1,In Service,False,55
0,12,11,Chicago,4,True,K3_FULL,15545,2019-05-16 13:54:22,41.856268,,-87.613348,0,Burnham Harbor,,Burnham Harbor,IN_SERVICE,1,In Service,False,23
0,0,22,Chicago,5,True,K3_FULL,13030,2019-05-16 13:55:33,41.874053,620 S. State St.,-87.627716,60605,State St & Harrison St,,State St & Harrison St,IN_SERVICE,1,In Service,False,23
0,1,38,Chicago,6,True,K3_FULL,15548,2019-05-16 13:55:37,41.886976,,-87.612813,60601,Dusable Harbor,,Dusable Harbor,IN_SERVICE,1,In Service,False,39
0,0,19,Chicago,7,True,K3_FULL,15534,2019-05-16 13:57:19,41.88634906269,,-87.6175165471,60601,Field Blvd & South Water St,,Field Blvd & South Water St,IN_SERVICE,1,In Service,False,19
0,3,12,Chicago,9,True,K3_FULL,15695,2019-05-16 13:54:35,41.82879201994,NA1,-87.6806044594,60609,Leavitt St & Archer Ave,,Leavitt St & Archer Ave,IN_SERVICE,1,In Service,False,15
0,10,1,Chicago,11,True,K3_FULL,15496,2019-05-16 13:56:27,41.76663823695,,-87.5764501141,60649,Jeffery Blvd & 71st St,,Jeffery Blvd & 71st St,IN_SERVICE,1,In Service,False,11
0,6,9,Chicago,12,True,K3_FULL,15497,2019-05-16 13:55:49,41.7664094567,MLSW,-87.5656875719,60649,South Shore Dr & 71st St,,South Shore Dr & 71st St,IN_SERVICE,1,In Service,False,15
0,15,20,Chicago,13,True,K3_FULL,13066,2019-05-16 13:54:08,41.932418,2790 N.Wilton Ave,-87.652705,60614,Wilton Ave & Diversey Pkwy,,Wilton Ave & Diversey Pkwy,IN_SERVICE,1,In Service,False,35
0,3,12,Chicago,14,True,K3_FULL,13163,2019-05-16 13:56:27,41.858086,962 W. 18th St,-87.651073,60608,Morgan St & 18th St,,Morgan St & 18th St,IN_SERVICE,1,In Service,False,15
0,2,13,Chicago,15,True,K3_FULL,13164,2019-05-16 13:54:45,41.858166,1726 S Racine Ave,-87.656495,60608,Racine Ave & 18th St,,Racine Ave & 18th St,IN_SERVICE,1,In Service,False,15
0,3,12,Chicago,16,True,K3_FULL,13223,2019-05-16 13:55:04,41.910337,1575 N Paulina Ave,-87.670072,60622,Paulina Ave & North Ave,,Paulina Ave & North Ave,IN_SERVICE,1,In Service,False,15
0,4,19,Chicago,17,True,K3_FULL,13246,2019-05-16 13:54:27,41.903119, W. Divison St,-87.673935,60622,Honore St & Division St,,Honore St & Division St,IN_SERVICE,1,In Service,False,23
0,16,3,Chicago,18,True,K3_FULL,15536,2019-05-16 13:57:04,41.883132,,-87.637321,60606,Wacker Dr & Washington St,,Wacker Dr & Washington St,IN_SERVICE,1,In Service,False,19
0,0,16,Chicago,19,True,K3_FULL,13139,2019-05-16 13:55:50,41.868968,,-87.659141,60607,Loomis St & Taylor St (*),,Loomis St & Taylor St (*),IN_SERVICE,1,In Service,False,16
0,7,8,Chicago,20,True,K3_FULL,13154,2019-05-16 13:54:34,41.910522,,-87.653106,60642,Sheffield Ave & Kingsbury St,,Sheffield Ave & Kingsbury St,IN_SERVICE,1,In Service,False,15
0,5,18,Chicago,21,True,K3_FULL,13157,2019-05-16 13:54:49,41.87772613,1103 W.Jackson Blvd,-87.65478743,60607,Aberdeen St & Jackson Blvd,,Aberdeen St & Jackson Blvd,IN_SERVICE,1,In Service,False,23
0,3,12,Chicago,22,True,K3_FULL,13160,2019-05-16 13:55:13,41.8694821,1134 W. Taylor St,-87.6554864,60607,May St & Taylor St,,May St & Taylor St,IN_SERVICE,1,In Service,False,15
0,0,16,Chicago,23,True,K3_FULL,13172,2019-05-16 13:54:03,41.902924,350 W. Elm st,-87.637715,60610,Orleans St & Elm St (*),,Orleans St & Elm St (*),IN_SERVICE,1,In Service,False,16
0,15,0,Chicago,24,True,K3_FULL,13262,2019-05-16 13:56:46,41.89186,240 E.Grand Ave.,-87.62062,60611,Fairbanks Ct & Grand Ave,,Fairbanks Ct & Grand Ave,IN_SERVICE,1,In Service,False,15
0,13,10,Chicago,25,True,K3_FULL,13034,2019-05-16 13:57:08,41.89766,150 E.Pearson st,-87.62351,60611,Michigan Ave & Pearson St,,Michigan Ave & Pearson St,IN_SERVICE,1,In Service,False,23
0,9,22,Chicago,26,True,K3_FULL,13051,2019-05-16 13:57:54,41.890359,,-87.617532,60611,McClurg Ct & Illinois St,,McClurg Ct & Illinois St,IN_SERVICE,1,In Service,False,31
0,8,11,Chicago,27,True,K3_FULL,13174,2019-05-16 13:53:48,41.91021,1530 N.Larrabee st,-87.6435,60610,Larrabee St & North Ave,,Larrabee St & North Ave,IN_SERVICE,1,In Service,False,19
0,2,12,Chicago,28,True,K3_FULL,13282,2019-05-16 13:57:53,41.91468,590 W. Menomonee,-87.64332,60614,Larrabee St & Menomonee St,,Larrabee St & Menomonee St,IN_SERVICE,1,In Service,False,15
0,5,9,Chicago,29,True,K3_FULL,13290,2019-05-16 13:56:04,41.90068,1016 N. Noble St,-87.6626,60642,Noble St & Milwaukee Ave,,Noble St & Milwaukee Ave,IN_SERVICE,1,In Service,False,15
0,0,15,Chicago,30,True,K3_FULL,13248,2019-05-16 13:57:03,41.899643,1611 W. Augusta Blvd,-87.6677,60642,Ashland Ave & Augusta Blvd,,Ashland Ave & Augusta Blvd,IN_SERVICE,1,In Service,False,15
0,18,5,Chicago,31,True,K3_FULL,13017,2019-05-16 13:54:27,41.896776,805 N. Franklin St,-87.635633,60654,Franklin St & Chicago Ave,,Franklin St & Chicago Ave,IN_SERVICE,1,In Service,False,23
0,5,14,Chicago,32,True,K3_FULL,13076,2019-05-16 13:57:05,41.87464,550 S. Racine,-87.65703,60607,Racine Ave & Congress Pkwy,,Racine Ave & Congress Pkwy,IN_SERVICE,1,In Service,False,19
0,7,20,Chicago,33,True,K3_FULL,13003,2019-05-16 13:56:01,41.877181,360 S State St,-87.627844,60604,State St & Van Buren St,,State St & Van Buren St,IN_SERVICE,1,In Service,False,27
0,5,10,Chicago,34,True,K3_FULL,13124,2019-05-16 13:54:03,41.9267559875,2432 N. Cannon Dr.,-87.6344287848,60614,Cannon Dr & Fullerton Ave,,Cannon Dr & Fullerton Ave,IN_SERVICE,1,In Service,False,15
0,20,27,Chicago,35,True,K3_FULL,13022,2019-05-16 13:56:40,41.892278,Navy Pier,-87.612043,60611,Streeter Dr & Grand Ave,,Streeter Dr & Grand Ave,IN_SERVICE,1,In Service,False,47
0,38,1,Chicago,36,True,K3_FULL,13019,2019-05-16 13:56:46,41.8777079559,340 S. Franklin St,-87.6353211408,60606,Franklin St & Jackson Blvd,,Franklin St & Jackson Blvd,IN_SERVICE,1,In Service,False,39
0,13,6,Chicago,37,True,K3_FULL,13020,2019-05-16 13:57:21,41.8793563587,59 W. Adams St ,-87.6297910363,60603,Dearborn St & Adams St,,Dearborn St & Adams St,IN_SERVICE,1,In Service,False,19
0,22,5,Chicago,38,True,K3_FULL,15547,2019-05-16 13:56:21,41.88602082773,,-87.6308760584,60601,Clark St & Lake St,,Clark St & Lake St,IN_SERVICE,1,In Service,False,27
0,13,9,Chicago,39,True,K3_FULL,15538,2019-05-16 13:58:00,41.87947235235,,-87.6256886059,60603,Wabash Ave & Adams St,,Wabash Ave & Adams St,IN_SERVICE,1,In Service,False,23
0,15,0,Chicago,40,True,K3_FULL,15537,2019-05-16 13:55:24,41.87934437346,,-87.6319852213,60603,LaSalle St & Adams St,,LaSalle St & Adams St,IN_SERVICE,1,In Service,False,15
0,2,17,Chicago,41,True,K3_FULL,15543,2019-05-16 13:53:49,41.87207763285,,-87.6295437729,60605,Federal St & Polk St,,Federal St & Polk St,IN_SERVICE,1,In Service,False,19
0,7,4,Chicago,42,True,K3_FULL,13170,2019-05-16 13:56:01,41.852619,13 E Cermak Rd,-87.626488,60616,Wabash Ave & Cermak Rd,CTA Green Line - Cermak Stop,Wabash Ave & Cermak Rd,IN_SERVICE,1,In Service,False,11
0,42,1,Chicago,43,True,K3_FULL,13001,2019-05-16 13:56:38,41.88355,120 N Michigan,-87.62418,60602,Michigan Ave & Washington St,,Michigan Ave & Washington St,IN_SERVICE,1,In Service,False,43
0,24,2,Chicago,44,True,K3_FULL,13002,2019-05-16 13:56:08,41.8847302006,,-87.6277335692,60601,State St & Randolph St,,State St & Randolph St,IN_SERVICE,1,In Service,False,27
0,3,12,Chicago,45,True,K3_FULL,13040,2019-05-16 13:55:55,41.876243,420 w. Michigan,-87.624426,60605,Michigan Ave & Ida B Wells Dr,,Michigan Ave & Ida B Wells Dr,IN_SERVICE,1,In Service,False,15
0,0,19,Chicago,46,True,K3_FULL,13046,2019-05-16 13:57:21,41.89993001,932 N Wells St,-87.63443007,60610,Wells St & Walton St,,Wells St & Walton St,IN_SERVICE,1,In Service,False,19
0,16,15,Chicago,47,True,K3_FULL,13050,2019-05-16 13:54:07,41.889187,5 E Kinzie St,-87.627754,60654,State St & Kinzie St,,State St & Kinzie St,IN_SERVICE,1,In Service,False,31
0,41,2,Chicago,48,True,K3_FULL,13012,2019-05-16 13:57:45,41.897764,840 N Larrabee St,-87.642884,60610,Larrabee St & Kingsbury St,,Larrabee St & Kingsbury St,IN_SERVICE,1,In Service,False,43
0,34,4,Chicago,49,True,K3_FULL,13049,2019-05-16 13:57:34,41.881319815,80 S Dearborn St,-87.6295209193,60603,Dearborn St & Monroe St,,Dearborn St & Monroe St,IN_SERVICE,1,In Service,False,39
0,7,28,Chicago,50,True,K3_FULL,13009,2019-05-16 13:55:26,41.8759326655,,-87.6305845355,60605,Clark St & Ida B Wells Dr,,Clark St & Ida B Wells Dr,IN_SERVICE,1,In Service,False,35
0,36,3,Chicago,51,True,K3_FULL,13005,2019-05-16 13:57:53,41.884576228,120 W. Randolph St.,-87.63188991,60601,Clark St & Randolph St,,Clark St & Randolph St,IN_SERVICE,1,In Service,False,39
0,35,0,Chicago,52,True,K3_FULL,13043,2019-05-16 13:55:58,41.886024,203 N Michigan Ave,-87.624117,60601,Michigan Ave & Lake St,,Michigan Ave & Lake St,IN_SERVICE,1,In Service,False,35
0,3,24,Chicago,53,True,K3_FULL,13064,2019-05-16 13:56:35,41.894722,,-87.634362,60654,Wells St & Huron St,,Wells St & Huron St,IN_SERVICE,1,In Service,False,27
0,0,18,Chicago,54,True,K3_FULL,13044,2019-05-16 13:58:20,41.896362458,1040 W. Chicago Ave.,-87.6540612729,60642,Ogden Ave & Chicago Ave,,Ogden Ave & Chicago Ave,IN_SERVICE,1,In Service,False,19
0,10,12,Chicago,55,True,K3_FULL,13166,2019-05-16 13:56:25,41.867324,850 W Roosevelt Rd,-87.648625,60608,Halsted St & Roosevelt Rd,,Halsted St & Roosevelt Rd,IN_SERVICE,1,In Service,False,23
0,16,11,Chicago,56,True,K3_FULL,13039,2019-05-16 13:58:11,41.888716036,368 N. Desplaines St.,-87.6444478533,60661,Desplaines St & Kinzie St,,Desplaines St & Kinzie St,IN_SERVICE,1,In Service,False,27
0,2,13,Chicago,57,True,K3_FULL,13327,2019-05-16 13:56:02,41.8671177825,559 W Roosevelt Rd,-87.6410879593,60607,Clinton St & Roosevelt Rd,,Clinton St & Roosevelt Rd,IN_SERVICE,1,In Service,False,15
0,16,6,Chicago,58,True,K3_FULL,13025,2019-05-16 13:54:12,41.916017,,-87.668879,60622,Marshfield Ave & Cortland St,,Marshfield Ave & Cortland St,IN_SERVICE,1,In Service,False,23
0,0,22,Chicago,59,True,K3_FULL,13031,2019-05-16 13:57:10,41.867227,1210 S Wabash Ave,-87.625961,60605,Wabash Ave & Roosevelt Rd,,Wabash Ave & Roosevelt Rd,IN_SERVICE,1,In Service,False,23
0,10,9,Chicago,60,True,K3_FULL,13058,2019-05-16 13:57:25,41.9105780349,1575 N Dayton St,-87.6494219288,60642,Dayton St & North Ave,,Dayton St & North Ave,IN_SERVICE,1,In Service,False,19
0,6,13,Chicago,61,True,K3_FULL,13221,2019-05-16 13:57:43,41.907655,1416 N Wood St,-87.672552,60622,Wood St & Milwaukee Ave,,Wood St & Milwaukee Ave,IN_SERVICE,1,In Service,False,19
0,6,21,Chicago,62,True,K3_FULL,13106,2019-05-16 13:57:02,41.8513751729,2253 S Dr Martin Luther King Jr Dr,-87.6188346489,60616,McCormick Place,,McCormick Place,IN_SERVICE,1,In Service,False,27
0,12,10,Chicago,66,True,K3_FULL,13021,2019-05-16 13:57:13,41.885637,,-87.641823,60661,Clinton St & Lake St,,Clinton St & Lake St,IN_SERVICE,1,In Service,False,23
0,23,4,Chicago,67,True,K3_FULL,13060,2019-05-16 13:55:23,41.9256018819,2410 N Sheffield Ave,-87.6537080423,60614,Sheffield Ave & Fullerton Ave,,Sheffield Ave & Fullerton Ave,IN_SERVICE,1,In Service,False,27
0,10,13,Chicago,68,True,K3_FULL,13037,2019-05-16 13:57:27,41.875885,520 W Tilden St,-87.640795,60607,Clinton St & Tilden St,,Clinton St & Tilden St,IN_SERVICE,1,In Service,False,23
0,11,12,Chicago,69,True,K3_FULL,13065,2019-05-16 13:53:51,41.9093960065,2002 W Pierce Ave,-87.6776919292,60622,Damen Ave & Pierce Ave,,Damen Ave & Pierce Ave,IN_SERVICE,1,In Service,False,23
0,13,9,Chicago,71,True,K3_FULL,13072,2019-05-16 13:56:25,41.8854833079,1003 W. Lake St.,-87.6523048564,60607,Morgan St & Lake St,,Morgan St & Lake St,IN_SERVICE,1,In Service,False,23
0,10,29,Chicago,72,True,K3_FULL,13148,2019-05-16 13:57:15,41.860384,1590 S Wabash Ave,-87.625813,60605,Wabash Ave & 16th St,,Wabash Ave & 16th St,IN_SERVICE,1,In Service,False,39
0,15,4,Chicago,73,True,K3_FULL,13038,2019-05-16 13:53:50,41.880422,207 S Jefferson St,-87.642746,60661,Jefferson St & Monroe St,,Jefferson St & Monroe St,IN_SERVICE,1,In Service,False,19
0,4,19,Chicago,74,True,K3_FULL,13265,2019-05-16 13:57:04,41.893626,511 W Erie St,-87.641527,60654,Kingsbury St & Erie St,,Kingsbury St & Erie St,IN_SERVICE,1,In Service,False,23
0,20,19,Chicago,75,True,K3_FULL,13138,2019-05-16 13:56:18,41.877245,,-87.639366,60661,Canal St & Jackson Blvd,,Canal St & Jackson Blvd,IN_SERVICE,1,In Service,False,39
0,18,21,Chicago,76,True,K3_FULL,13300,2019-05-16 13:54:44,41.880958,402 E Monroe St,-87.616743,60603,Lake Shore Dr & Monroe St,,Lake Shore Dr & Monroe St,IN_SERVICE,1,In Service,False,39
0,10,21,Chicago,77,True,K3_FULL,13301,2019-05-16 13:58:20,41.882242,5 N Clinton St,-87.641066,60661,Clinton St & Madison St,,Clinton St & Madison St,IN_SERVICE,1,In Service,False,31
0,13,6,Chicago,80,True,K3_FULL,13156,2019-05-16 13:56:17,41.880419,,-87.655519,60607,Aberdeen St & Monroe St,,Aberdeen St & Monroe St,IN_SERVICE,1,In Service,False,19
0,23,16,Chicago,81,True,K3_FULL,13023,2019-05-16 13:56:14,41.884241,,-87.629634,60601,Daley Center Plaza,,Daley Center Plaza,IN_SERVICE,1,In Service,False,39
0,0,19,Chicago,84,True,K3_FULL,13033,2019-05-16 13:57:50,41.891578,500 N Milwaukee Ave.,-87.648384,60654,Milwaukee Ave & Grand Ave,,Milwaukee Ave & Grand Ave,IN_SERVICE,1,In Service,False,19
0,11,11,Chicago,85,True,K3_FULL,13042,2019-05-16 13:57:59,41.90096039,140 E Oak St,-87.62377664,60611,Michigan Ave & Oak St,,Michigan Ave & Oak St,IN_SERVICE,1,In Service,False,23
0,8,11,Chicago,86,True,K3_FULL,13289,2019-05-16 13:53:52,41.89637337,811 N Noble St,-87.66098386,60642,Eckhart Park,,Eckhart Park,IN_SERVICE,1,In Service,False,19
0,3,16,Chicago,87,True,K3_FULL,13189,2019-05-16 13:56:02,41.92556258,2411 N Racine Ave,-87.65840426,60614,Racine Ave & Fullerton Ave,,Racine Ave & Fullerton Ave,IN_SERVICE,1,In Service,False,19
0,13,6,Chicago,88,True,K3_FULL,13155,2019-05-16 13:55:27,41.884069,1213 W Randolph St,-87.656853,60607,Racine Ave & Randolph St,,Racine Ave & Randolph St,IN_SERVICE,1,In Service,False,19
0,0,15,Chicago,89,True,K3_FULL,15540,2019-05-16 13:55:34,41.874618,,-87.632882,60605,Financial Pl & Ida B Wells Dr (Temp),,Financial Pl & Ida B Wells Dr (Temp),IN_SERVICE,1,In Service,False,15
0,32,15,Chicago,90,True,K3_FULL,13008,2019-05-16 13:54:24,41.8810317,33 S Michigan Ave,-87.62408432,60601,Millennium Park,,Millennium Park,IN_SERVICE,1,In Service,False,47
0,3,28,Chicago,91,True,K3_FULL,13010,2019-05-16 13:57:22,41.88338,109 N Clinton St,-87.64117,60661,Clinton St & Washington Blvd,,Clinton St & Washington Blvd,IN_SERVICE,1,In Service,False,31
0,4,15,Chicago,92,True,K3_FULL,13196,2019-05-16 13:55:12,41.894556,,-87.653449,60642,Carpenter St & Huron St,,Carpenter St & Huron St,IN_SERVICE,1,In Service,False,19
0,5,10,Chicago,93,True,K3_FULL,13190,2019-05-16 13:55:59,41.913688,1740 N Sheffield Ave,-87.652855,60614,Sheffield Ave & Willow St,,Sheffield Ave & Willow St,IN_SERVICE,1,In Service,False,15
0,19,11,Chicago,94,True,K3_FULL,13146,2019-05-16 13:56:48,41.918306,,-87.636282,60614,Clark St & Armitage Ave,,Clark St & Armitage Ave,IN_SERVICE,1,In Service,False,31
0,4,7,Chicago,95,True,K3_FULL,15490,2019-05-16 13:57:26,41.778881,,-87.586647,60637,Stony Island Ave & 64th St,,Stony Island Ave & 64th St,IN_SERVICE,1,In Service,False,11
0,11,12,Chicago,96,True,K3_FULL,15535,2019-05-16 13:57:59,41.88461618962,,-87.6445705849,60661,Desplaines St & Randolph St,,Desplaines St & Randolph St,IN_SERVICE,1,In Service,False,23
0,5,50,Chicago,97,True,K3_FULL,13029,2019-05-16 13:57:21,41.865312,Off Street,-87.617867,60605,Field Museum,,Field Museum,IN_SERVICE,1,In Service,False,55
0,14,1,Chicago,98,True,K3_FULL,13006,2019-05-16 13:55:42,41.882664,,-87.63253,60602,LaSalle St & Washington St,,LaSalle St & Washington St,IN_SERVICE,1,In Service,False,15
0,7,12,Chicago,99,True,K3_FULL,13337,2019-05-16 13:55:38,41.89257,,-87.614492,60611,Lake Shore Dr & Ohio St,,Lake Shore Dr & Ohio St,IN_SERVICE,1,In Service,False,19
0,20,15,Chicago,100,True,K3_FULL,13013,2019-05-16 13:55:29,41.888243,333 N Orleans St,-87.63639,60654,Orleans St & Merchandise Mart Plaza,,Orleans St & Merchandise Mart Plaza,IN_SERVICE,1,In Service,False,35
0,2,13,Chicago,101,True,K3_FULL,15491,2019-05-16 13:57:57,41.78101637196,,-87.5761197602,60649,63rd St Beach,,63rd St Beach,IN_SERVICE,1,In Service,False,15
0,6,5,Chicago,102,True,K3_FULL,15492,2019-05-16 13:53:51,41.77345849948,,-87.5853397391,60649,Stony Island Ave & 67th St,,Stony Island Ave & 67th St,IN_SERVICE,1,In Service,False,11
0,15,0,Chicago,103,True,K3_FULL,15542,2019-05-16 13:55:09,41.87146651779,,-87.6409491327,60607,Clinton St & Polk St (*),Old kiosk KA1503000022 now at Clark & Montrose 5.3.2017 DH,Clinton St & Polk St (*),IN_SERVICE,1,In Service,False,16
0,5,22,Chicago,106,True,K3_FULL,13014,2019-05-16 13:56:23,41.897448,,-87.628722,60610,State St & Pearson St,,State St & Pearson St,IN_SERVICE,1,In Service,False,27
0,19,8,Chicago,107,True,K3_FULL,15539,2019-05-16 13:58:03,41.878287,,-87.643909,60661,Desplaines St & Jackson Blvd,,Desplaines St & Jackson Blvd,IN_SERVICE,1,In Service,False,27
0,0,19,Chicago,108,True,K3_FULL,13027,2019-05-16 13:57:58,41.87184,,-87.64664,60607,Halsted St & Polk St,,Halsted St & Polk St,IN_SERVICE,1,In Service,False,19
0,4,15,Chicago,109,True,K3_FULL,13028,2019-05-16 13:57:48,41.874754,,-87.649807,60607,900 W Harrison St,Peoria Blue Line,900 W Harrison St,IN_SERVICE,1,In Service,False,19
0,6,21,Chicago,110,True,K3_FULL,13045,2019-05-16 13:56:58,41.893992,,-87.629318,60654,Dearborn St & Erie St,"
",Dearborn St & Erie St,IN_SERVICE,1,In Service,False,27
0,5,22,Chicago,111,True,K3_FULL,13052,2019-05-16 13:56:50,41.894666,,-87.638437,60654,Sedgwick St & Huron St,,Sedgwick St & Huron St,IN_SERVICE,1,In Service,False,27
0,12,3,Chicago,112,True,K3_FULL,13053,2019-05-16 13:57:34,41.883668,,-87.64867,60607,Green St & Randolph St,,Green St & Randolph St,IN_SERVICE,1,In Service,False,15
0,8,7,Chicago,113,True,K3_FULL,13059,2019-05-16 13:57:21,41.91844,,-87.65222,60614,Bissell St & Armitage Ave,,Bissell St & Armitage Ave,IN_SERVICE,1,In Service,False,15
0,13,14,Chicago,114,True,K3_FULL,13062,2019-05-16 13:54:20,41.949399,,-87.654529,60657,Sheffield Ave & Waveland Ave,,Sheffield Ave & Waveland Ave,IN_SERVICE,1,In Service,False,27
0,17,6,Chicago,115,True,K3_FULL,13067,2019-05-16 13:54:18,41.936266,,-87.652662,60657,Sheffield Ave & Wellington Ave,,Sheffield Ave & Wellington Ave,IN_SERVICE,1,In Service,False,23
0,9,6,Chicago,116,True,K3_FULL,13068,2019-05-16 13:54:02,41.91552,,-87.687022,60647,Western Ave & Winnebago Ave,,Western Ave & Winnebago Ave,IN_SERVICE,1,In Service,False,15
0,22,4,Chicago,117,True,K3_FULL,13069,2019-05-16 13:56:08,41.94018,,-87.65304,60657,Wilton Ave & Belmont Ave,,Wilton Ave & Belmont Ave,IN_SERVICE,1,In Service,False,27
0,0,19,Chicago,118,True,K3_FULL,13070,2019-05-16 13:54:14,41.911386,,-87.638677,60610,Sedgwick St & North Ave,,Sedgwick St & North Ave,IN_SERVICE,1,In Service,False,19
0,9,10,Chicago,119,True,K3_FULL,13073,2019-05-16 13:53:56,41.88592,,-87.66717,60612,Ashland Ave & Lake St (Temp),,Ashland Ave & Lake St (Temp),IN_SERVICE,1,In Service,False,19
0,16,3,Chicago,120,True,K3_FULL,13075,2019-05-16 13:55:05,41.853005,,-87.630578,60616,Wentworth Ave & Cermak Rd (Temp),,Wentworth Ave & Cermak Rd (Temp),IN_SERVICE,1,In Service,False,19
0,8,11,Chicago,121,True,K3_FULL,13398,2019-05-16 13:53:59,41.802562,,-87.590368,60615,Blackstone Ave & Hyde Park Blvd,,Blackstone Ave & Hyde Park Blvd,IN_SERVICE,1,In Service,False,19
0,6,9,Chicago,122,True,K3_FULL,13081,2019-05-16 13:55:34,41.87501,,-87.67328,60612,Ogden Ave & Congress Pkwy,,Ogden Ave & Congress Pkwy,IN_SERVICE,1,In Service,False,15
0,10,5,Chicago,123,True,K3_FULL,13084,2019-05-16 13:57:27,41.922695,,-87.697153,60647,California Ave & Milwaukee Ave,,California Ave & Milwaukee Ave,IN_SERVICE,1,In Service,False,15
0,12,3,Chicago,124,True,K3_FULL,13089,2019-05-16 13:55:19,41.855048,,-87.675726,60608,Damen Ave & Cullerton St,,Damen Ave & Cullerton St,IN_SERVICE,1,In Service,False,15
0,22,1,Chicago,125,True,K3_FULL,15533,2019-05-16 13:53:58,41.890173,,-87.626185,60611,Rush St & Hubbard St,,Rush St & Hubbard St,IN_SERVICE,1,In Service,False,23
0,0,15,Chicago,126,True,K3_FULL,13128,2019-05-16 13:56:12,41.911974,,-87.631942,60614,Clark St & North Ave,,Clark St & North Ave,IN_SERVICE,1,In Service,False,15
0,12,3,Chicago,127,True,K3_FULL,13131,2019-05-16 13:55:10,41.925905,,-87.64926,60614,Lincoln Ave & Fullerton Ave,,Lincoln Ave & Fullerton Ave,IN_SERVICE,1,In Service,False,15
0,4,15,Chicago,128,True,K3_FULL,13132,2019-05-16 13:55:12,41.895769,,-87.67722,60622,Damen Ave & Chicago Ave,,Damen Ave & Chicago Ave,IN_SERVICE,1,In Service,False,19
0,2,13,Chicago,129,True,K3_FULL,13135,2019-05-16 13:55:06,41.857556,,-87.661535,60608,Blue Island Ave & 18th St,,Blue Island Ave & 18th St,IN_SERVICE,1,In Service,False,15
0,1,18,Chicago,130,True,K3_FULL,13136,2019-05-16 13:55:30,41.903266,,-87.678435,60622,Damen Ave & Division St,,Damen Ave & Division St,IN_SERVICE,1,In Service,False,19
0,3,12,Chicago,131,True,K3_FULL,13140,2019-05-16 13:57:23,41.939365,,-87.668385,60657,Lincoln Ave & Belmont Ave,,Lincoln Ave & Belmont Ave,IN_SERVICE,1,In Service,False,15
0,9,6,Chicago,132,True,K3_FULL,13149,2019-05-16 13:57:10,41.849237,,-87.631715,60616,Wentworth Ave & 24th St,,Wentworth Ave & 24th St,IN_SERVICE,1,In Service,False,15
0,25,5,Chicago,133,True,K3_FULL,15532,2019-05-16 13:53:51,41.88917683258,,-87.6385057718,60654,Kingsbury St & Kinzie St,,Kingsbury St & Kinzie St,IN_SERVICE,1,In Service,False,31
0,5,13,Chicago,134,True,K3_FULL,13158,2019-05-16 13:58:02,41.877749,,-87.649633,60607,Peoria St & Jackson Blvd,,Peoria St & Jackson Blvd,IN_SERVICE,1,In Service,False,19
0,7,4,Chicago,135,True,K3_FULL,13162,2019-05-16 13:57:14,41.85378,,-87.64665,60608,Halsted St & 21st St,,Halsted St & 21st St,IN_SERVICE,1,In Service,False,11
0,2,13,Chicago,136,True,K3_FULL,13165,2019-05-16 13:56:24,41.865054,,-87.656959,60608,Racine Ave & 13th St,,Racine Ave & 13th St,IN_SERVICE,1,In Service,False,15
0,5,8,Chicago,137,True,K3_FULL,13169,2019-05-16 13:56:32,41.862378,,-87.651062,60608,Morgan Ave & 14th Pl,,Morgan Ave & 14th Pl,IN_SERVICE,1,In Service,False,15
0,2,12,Chicago,138,True,K3_FULL,13171,2019-05-16 13:56:57,41.904613,,-87.640552,60610,Clybourn Ave & Division St,,Clybourn Ave & Division St,IN_SERVICE,1,In Service,False,15
0,1,18,Chicago,140,True,K3_FULL,13173,2019-05-16 13:57:52,41.898969,,-87.629912,60610,Dearborn Pkwy & Delaware Pl,,Dearborn Pkwy & Delaware Pl,IN_SERVICE,1,In Service,False,19
0,15,8,Chicago,141,True,K3_FULL,13179,2019-05-16 13:54:05,41.915689,,-87.6346,60614,Clark St & Lincoln Ave,,Clark St & Lincoln Ave,IN_SERVICE,1,In Service,False,23
0,18,12,Chicago,142,True,K3_FULL,15531,2019-05-16 13:56:41,41.894503,660 N McClurg Ct,-87.617854,60611,McClurg Ct & Erie St,,McClurg Ct & Erie St,IN_SERVICE,1,In Service,False,31
0,5,9,Chicago,143,True,K3_FULL,13191,2019-05-16 13:56:47,41.922167,,-87.638888,60614,Sedgwick St & Webster Ave,,Sedgwick St & Webster Ave,IN_SERVICE,1,In Service,False,15
0,3,16,Chicago,144,True,K3_FULL,13193,2019-05-16 13:54:24,41.921822,,-87.64414,60614,Larrabee St & Webster Ave,,Larrabee St & Webster Ave,IN_SERVICE,1,In Service,False,19
0,13,6,Chicago,145,True,K3_FULL,15529,2019-05-16 13:55:42,41.8985866514,,-87.6219152258,60611,Mies van der Rohe Way & Chestnut St,,Mies van der Rohe Way & Chestnut St,IN_SERVICE,1,In Service,False,19
0,6,13,Chicago,146,True,K3_FULL,13206,2019-05-16 13:55:49,41.877945,,-87.662007,60607,Loomis St & Jackson Blvd,,Loomis St & Jackson Blvd,IN_SERVICE,1,In Service,False,19
0,1,14,Chicago,147,True,K3_FULL,13212,2019-05-16 13:55:32,41.845687,,-87.622481,60616,Indiana Ave & 26th St,,Indiana Ave & 26th St,IN_SERVICE,1,In Service,False,15
0,10,5,Chicago,148,True,K3_FULL,13216,2019-05-16 13:55:18,41.834734,,-87.625813,60616,State St & 33rd St,,State St & 33rd St,IN_SERVICE,1,In Service,False,15
0,0,11,Chicago,149,True,K3_FULL,13217,2019-05-16 13:54:09,41.8349,,-87.61793,60616,Calumet Ave & 33rd St,,Calumet Ave & 33rd St,IN_SERVICE,1,In Service,False,11
0,16,11,Chicago,150,True,K3_FULL,13220,2019-05-16 13:54:09,41.838556,,-87.608218,60616,Fort Dearborn Dr & 31st St,,Fort Dearborn Dr & 31st St,IN_SERVICE,1,In Service,False,27
0,7,8,Chicago,152,True,K3_FULL,13226,2019-05-16 13:55:35,41.932225,,-87.658617,60614,Lincoln Ave & Diversey Pkwy,,Lincoln Ave & Diversey Pkwy,IN_SERVICE,1,In Service,False,15
0,9,10,Chicago,153,True,K3_FULL,13228,2019-05-16 13:57:38,41.935733,,-87.663576,60657,Southport Ave & Wellington Ave,,Southport Ave & Wellington Ave,IN_SERVICE,1,In Service,False,19
0,8,7,Chicago,154,True,K3_FULL,13229,2019-05-16 13:57:25,41.93949,,-87.66378,60657,Southport Ave & Belmont Ave,,Southport Ave & Belmont Ave,IN_SERVICE,1,In Service,False,15
0,7,8,Chicago,156,True,K3_FULL,13232,2019-05-16 13:55:50,41.9364968219,,-87.6475386582,60657,Clark St & Wellington Ave,,Clark St & Wellington Ave,IN_SERVICE,1,In Service,False,15
0,4,11,Chicago,157,True,K3_FULL,13234,2019-05-16 13:54:59,41.936669,,-87.636794,60657,Lake Shore Dr & Wellington Ave,,Lake Shore Dr & Wellington Ave,IN_SERVICE,1,In Service,False,15
0,6,9,Chicago,158,True,K3_FULL,13243,2019-05-16 13:57:16,41.912616,,-87.681391,60647,Milwaukee Ave & Wabansia Ave,,Milwaukee Ave & Wabansia Ave,IN_SERVICE,1,In Service,False,15
0,1,10,Chicago,159,True,K3_FULL,13245,2019-05-16 13:53:51,41.907781,,-87.685854,60622,1451 N Claremont Ave,,Claremont Ave & Hirsch St,IN_SERVICE,1,In Service,False,11
0,6,9,Chicago,160,True,K3_FULL,13257,2019-05-16 13:55:59,41.910535,,-87.689556,60647,Campbell Ave & North Ave,,Campbell Ave & North Ave,IN_SERVICE,1,In Service,False,15
0,7,16,Chicago,161,True,K3_FULL,15530,2019-05-16 13:55:00,41.89576474564,,-87.6259080327,60611,Rush St & Superior St,,Rush St & Superior St,IN_SERVICE,1,In Service,False,23
0,5,10,Chicago,162,True,K3_FULL,13268,2019-05-16 13:54:30,41.93588,,-87.67842,60618,Damen Ave & Wellington Ave,,Damen Ave & Wellington Ave,IN_SERVICE,1,In Service,False,15
0,8,7,Chicago,163,True,K3_FULL,13271,2019-05-16 13:57:17,41.931931,,-87.677856,60614,Damen Ave & Clybourn Ave,,Damen Ave & Clybourn Ave,IN_SERVICE,1,In Service,False,15
0,24,3,Chicago,164,True,K3_FULL,13272,2019-05-16 13:55:45,41.885837,,-87.6355,60606,Franklin St & Lake St,,Franklin St & Lake St,IN_SERVICE,1,In Service,False,27
0,17,5,Chicago,165,True,K3_FULL,13275,2019-05-16 13:55:48,41.95078,,-87.659172,60613,Clark St & Grace St,,Clark St & Grace St,IN_SERVICE,1,In Service,False,23
0,0,15,Chicago,166,True,K3_FULL,13296,2019-05-16 13:58:19,41.92883,,-87.668507,60614,Ashland Ave & Wrightwood Ave,,Ashland Ave & Wrightwood Ave,IN_SERVICE,1,In Service,False,15
0,5,2,Chicago,167,True,K3_FULL,13306,2019-05-16 13:54:41,41.8492,,-87.67564,60608,Damen Ave & Coulter St,,Damen Ave & Coulter St,IN_SERVICE,1,In Service,False,7
0,1,18,Chicago,168,True,K3_FULL,13310,2019-05-16 13:55:36,41.864059,,-87.623727,60605,Michigan Ave & 14th St,,Michigan Ave & 14th St,IN_SERVICE,1,In Service,False,19
0,4,11,Chicago,169,True,K3_FULL,13326,2019-05-16 13:56:51,41.874255,,-87.639573,60607,Canal St & Harrison St,,Canal St & Harrison St,IN_SERVICE,1,In Service,False,15
0,10,5,Chicago,170,True,K3_FULL,13329,2019-05-16 13:53:49,41.85795,,-87.640826,60616,Clinton St & 18th St,,Clinton St & 18th St,IN_SERVICE,1,In Service,False,15
0,4,7,Chicago,171,True,K3_FULL,13331,2019-05-16 13:56:39,41.855136,,-87.654127,60608,May St & Cullerton St,,May St & Cullerton St,IN_SERVICE,1,In Service,False,11
0,1,10,Chicago,172,True,K3_FULL,15525,2019-05-16 13:54:35,41.90230870122,,-87.627690528,60611,Rush St & Cedar St,,Rush St & Cedar St,IN_SERVICE,1,In Service,False,11
0,15,0,Chicago,173,True,K3_FULL,13338,2019-05-16 13:54:57,41.89691,,-87.621743,60611,Mies van der Rohe Way & Chicago Ave,,Mies van der Rohe Way & Chicago Ave,IN_SERVICE,1,In Service,False,15
0,9,26,Chicago,174,True,K3_FULL,13341,2019-05-16 13:54:44,41.882091,,-87.639833,60606,Canal St & Madison St,,Canal St & Madison St,IN_SERVICE,1,In Service,False,35
0,1,17,Chicago,175,True,K3_FULL,13344,2019-05-16 13:57:54,41.872596,,-87.633502,60607,Wells St & Polk St,,Wells St & Polk St,IN_SERVICE,1,In Service,False,19
0,12,25,Chicago,176,True,K3_FULL,13349,2019-05-16 13:57:38,41.902973,,-87.63128,60610,Clark St & Elm St,,Clark St & Elm St,IN_SERVICE,1,In Service,False,38
0,14,13,Chicago,177,True,K3_FULL,13350 ,2019-05-16 13:56:54,41.926277,,-87.630834,60614,Theater on the Lake,,Theater on the Lake,IN_SERVICE,1,In Service,False,31
0,0,15,Chicago,178,True,K3_FULL,13408,2019-05-16 13:55:27,41.856594,,-87.627542,60616,State St & 19th St,,State St & 19th St,IN_SERVICE,1,In Service,False,15
0,3,12,Chicago,179,True,K3_FULL,13420,2019-05-16 13:54:37,41.8246,Off Steet,-87.61678,60653,MLK Jr Dr & Pershing Rd,Formerly MLK Jr Dr & Oakwood Blvd,MLK Jr Dr & Pershing Rd,IN_SERVICE,1,In Service,False,15
0,3,12,Chicago,180,True,K3_FULL,15523,2019-05-16 13:57:05,41.906866,,-87.626217,60610,Ritchie Ct & Banks St,,Ritchie Ct & Banks St,IN_SERVICE,1,In Service,False,15
0,31,0,Chicago,181,True,K3_FULL,13430,2019-05-16 13:56:32,41.890762,On Street,-87.631697,60654,LaSalle St & Illinois St,,LaSalle St & Illinois St,IN_SERVICE,1,In Service,False,31
0,1,22,Chicago,182,True,K3_FULL,15522,2019-05-16 13:54:16,41.903222,,-87.634324,60610,Wells St & Elm St,,Wells St & Elm St,IN_SERVICE,1,In Service,False,23
0,0,23,Chicago,183,True,K3_FULL,13142,2019-05-16 13:57:53,41.901315,,-87.677409,60622,Damen Ave & Thomas St (Augusta Blvd),,Damen Ave & Thomas St (Augusta Blvd),IN_SERVICE,1,In Service,False,23
0,7,12,Chicago,184,True,K3_FULL,13082,2019-05-16 13:55:31,41.8309,,-87.62803,60616,State St & 35th St,,State St & 35th St,IN_SERVICE,1,In Service,False,19
0,1,10,Chicago,185,True,K3_FULL,13266,2019-05-16 13:56:25,41.917741,,-87.691392,60647,Stave St & Armitage Ave,,Stave St & Armitage Ave,IN_SERVICE,1,In Service,False,11
0,3,11,Chicago,186,True,K3_FULL,13194,2019-05-16 13:56:14,41.891795,,-87.658751,60642,Ogden Ave & Race Ave,,Ogden Ave & Race Ave,IN_SERVICE,1,In Service,False,15
0,11,4,Chicago,188,True,K3_FULL,13295,2019-05-16 13:54:36,41.92533,,-87.6658,60614,Greenview Ave & Fullerton Ave,,Greenview Ave & Fullerton Ave,IN_SERVICE,1,In Service,False,15
0,12,3,Chicago,190,True,K3_FULL,13298,2019-05-16 13:55:05,41.928773,,-87.663913,60614,Southport Ave & Wrightwood Ave,,Southport Ave & Wrightwood Ave,IN_SERVICE,1,In Service,False,15
0,13,15,Chicago,191,True,K3_FULL,13056,2019-05-16 13:57:15,41.88169,,-87.63953,60661,Canal St & Monroe St (*),,Canal St & Monroe St (*),IN_SERVICE,1,In Service,False,28
0,5,41,Chicago,192,True,K3_FULL,13011,2019-05-16 13:57:38,41.879255,,-87.639904,60661,Canal St & Adams St,,Canal St & Adams St,IN_SERVICE,1,In Service,False,47
0,5,6,Chicago,193,True,K3_FULL,13213,2019-05-16 13:56:11,41.841707,,-87.626938,60616,State St & 29th St,,State St & 29th St,IN_SERVICE,1,In Service,False,11
0,17,2,Chicago,194,True,K3_FULL,13339,2019-05-16 13:54:31,41.886875,,-87.62603,60601,Wabash Ave & Wacker Pl,,Wabash Ave & Wacker Pl,IN_SERVICE,1,In Service,False,19
0,39,15,Chicago,195,True,K3_FULL,13263,2019-05-16 13:58:13,41.884728,,-87.619521,60601,Columbus Dr & Randolph St,,Columbus Dr & Randolph St,IN_SERVICE,1,In Service,False,55
0,16,15,Chicago,196,True,K3_FULL,13427,2019-05-16 13:56:30,41.890573,,-87.622072,60611,Cityfront Plaza Dr & Pioneer Ct,,Cityfront Plaza Dr & Pioneer Ct,IN_SERVICE,1,In Service,False,31
0,17,1,Chicago,197,True,K3_FULL,13036,2019-05-16 13:56:17,41.882134,,-87.625125,60602,Michigan Ave & Madison St,,Michigan Ave & Madison St,IN_SERVICE,1,In Service,False,19
0,16,11,Chicago,198,True,K3_FULL,13159,2019-05-16 13:54:18,41.881892,,-87.648789,60661,Green St & Madison St,,Green St & Madison St,IN_SERVICE,1,In Service,False,27
0,26,5,Chicago,199,True,K3_FULL,13004,2019-05-16 13:54:04,41.891466,,-87.626761,60611,Wabash Ave & Grand Ave,,Wabash Ave & Grand Ave,IN_SERVICE,1,In Service,False,31
0,4,7,Chicago,200,True,K3_FULL,13090,2019-05-16 13:54:22,41.809851,,-87.616279,60653,MLK Jr Dr & 47th St,,MLK Jr Dr & 47th St,IN_SERVICE,1,In Service,False,11
0,3,8,Chicago,201,True,K3_FULL,13083,2019-05-16 13:56:03,41.82168,,-87.6216,60653,Indiana Ave & 40th St,,Indiana Ave & 40th St,IN_SERVICE,1,In Service,False,11
0,3,12,Chicago,202,True,K3_FULL,13099,2019-05-16 13:56:50,41.857499,,-87.646277,60616,Halsted St & 18th St,,Halsted St & 18th St,IN_SERVICE,1,In Service,False,15
0,3,12,Chicago,203,True,K3_FULL,13091,2019-05-16 13:58:18,41.854109,,-87.685838,60608,Western Ave & 21st St,,Western Ave & 21st St,IN_SERVICE,1,In Service,False,15
0,6,4,Chicago,204,True,K3_FULL,13101,2019-05-16 13:56:42,41.794853,,-87.618691,60637,Prairie Ave & Garfield Blvd,,Prairie Ave & Garfield Blvd,IN_SERVICE,1,In Service,False,11
0,11,4,Chicago,205,True,K3_FULL,13088,2019-05-16 13:57:40,41.857901,,-87.668745,60608,Paulina St & 18th St,,Paulina St & 18th St,IN_SERVICE,1,In Service,False,15
0,3,12,Chicago,206,True,K3_FULL,13098,2019-05-16 13:54:15,41.847203,,-87.646795,60608,Halsted St & Archer Ave,,Halsted St & Archer Ave,IN_SERVICE,1,In Service,False,15
0,0,15,Chicago,207,True,K3_FULL,13399,2019-05-16 13:53:39,41.84358,,-87.645368,60616,Emerald Ave & 28th St,,Emerald Ave & 28th St,IN_SERVICE,1,In Service,False,15
0,8,7,Chicago,208,True,K3_FULL,13307,2019-05-16 13:53:49,41.85381,,-87.665897,60608,Ashland Ave & 21st St,,Ashland Ave & 21st St,IN_SERVICE,1,In Service,False,15
0,2,9,Chicago,209,True,K3_FULL,13308,2019-05-16 13:55:48,41.849527,,-87.640591,60616,Normal Ave & Archer Ave,,Normal Ave & Archer Ave,IN_SERVICE,1,In Service,False,11
0,14,12,Chicago,210,True,K3_FULL,13061,2019-05-16 13:57:32,41.90345,,-87.667747,60622,Ashland Ave & Division St,,Ashland Ave & Division St,IN_SERVICE,1,In Service,False,27
0,12,6,Chicago,211,True,K3_FULL,13016,2019-05-16 13:54:02,41.894448,,-87.622663,60611,St. Clair St & Erie St,,St. Clair St & Erie St,IN_SERVICE,1,In Service,False,19
0,29,1,Chicago,212,True,K3_FULL,13264,2019-05-16 13:55:03,41.889906,,-87.634266,60654,Wells St & Hubbard St,,Wells St & Hubbard St,IN_SERVICE,1,In Service,False,31
0,7,8,Chicago,213,True,K3_FULL,13244,2019-05-16 13:56:22,41.910153,,-87.68229,60622,Leavitt St & North Ave,,Leavitt St & North Ave,IN_SERVICE,1,In Service,False,15
0,5,18,Chicago,214,True,K3_FULL,13141,2019-05-16 13:56:01,41.89122,,-87.67686,60622,Damen Ave & Grand Ave,,Damen Ave & Grand Ave,IN_SERVICE,1,In Service,False,23
0,5,10,Chicago,215,True,K3_FULL,13134,2019-05-16 13:56:28,41.88137,,-87.67493,60612,Damen Ave & Madison St,,Damen Ave & Madison St,IN_SERVICE,1,In Service,False,15
0,9,6,Chicago,216,True,K3_FULL,13256,2019-05-16 13:54:50,41.903029,,-87.697474,60622,California Ave & Division St,,California Ave & Division St,IN_SERVICE,1,In Service,False,15
0,15,0,Chicago,217,True,K3_FULL,13197,2019-05-16 13:57:27,41.886926,,-87.656919,60607,Racine Ave (May St) & Fulton St,,Racine Ave (May St) & Fulton St,IN_SERVICE,1,In Service,False,15
0,3,8,Chicago,218,True,K3_FULL,13180,2019-05-16 13:55:16,41.856802,,-87.633879,60616,Wells St & 19th St,,Wells St & 19th St,IN_SERVICE,1,In Service,False,11
0,5,13,Chicago,219,True,K3_FULL,13133,2019-05-16 13:53:48,41.915983,,-87.677335,60622,Damen Ave & Cortland St,,Damen Ave & Cortland St,IN_SERVICE,1,In Service,False,19
0,13,10,Chicago,220,True,K3_FULL,13123,2019-05-16 13:58:10,41.931248,,-87.644336,60614,Clark St & Drummond Pl,,Clark St & Drummond Pl,IN_SERVICE,1,In Service,False,23
0,9,10,Chicago,222,True,K3_FULL,13242,2019-05-16 13:54:54,41.920195,,-87.693033,60647,Milwaukee Ave & Rockwell St,,Milwaukee Ave & Rockwell St,IN_SERVICE,1,In Service,False,19
0,1,14,Chicago,223,True,K3_FULL,13185,2019-05-16 13:55:22,41.918216,,-87.656936,60614,Clifton Ave & Armitage Ave,,Clifton Ave & Armitage Ave,IN_SERVICE,1,In Service,False,15
0,5,14,Chicago,224,True,K3_FULL,13181,2019-05-16 13:58:02,41.913865,,-87.648755,60614,Halsted St & Willow St,,Halsted St & Willow St,IN_SERVICE,1,In Service,False,19
0,13,9,Chicago,225,True,K3_FULL,13192,2019-05-16 13:55:27,41.919936,,-87.64883,60614,Halsted St & Dickens Ave,,Halsted St & Dickens Ave,IN_SERVICE,1,In Service,False,23
0,6,9,Chicago,226,True,K3_FULL,13230,2019-05-16 13:57:27,41.939743,,-87.658865,60657,Racine Ave & Belmont Ave,,Racine Ave & Belmont Ave,IN_SERVICE,1,In Service,False,15
0,11,12,Chicago,227,True,K3_FULL,13235,2019-05-16 13:56:56,41.94815,,-87.66394,60613,Southport Ave & Waveland Ave,,Southport Ave & Waveland Ave,IN_SERVICE,1,In Service,False,23
0,5,10,Chicago,228,True,K3_FULL,13143,2019-05-16 13:57:13,41.9406,,-87.6785,60618,Damen Ave & Melrose Ave,,Damen Ave & Melrose Ave,IN_SERVICE,1,In Service,False,15
0,9,10,Chicago,229,True,K3_FULL,13071,2019-05-16 13:54:14,41.943739,,-87.66402,60657,Southport Ave & Roscoe St,,Southport Ave & Roscoe St,IN_SERVICE,1,In Service,False,19
0,5,14,Chicago,230,True,K3_FULL,13078,2019-05-16 13:54:38,41.94334,,-87.67097,60657,Lincoln Ave & Roscoe St,,Lincoln Ave & Roscoe St,IN_SERVICE,1,In Service,False,19
0,9,14,Chicago,231,True,K3_FULL,13130,2019-05-16 13:53:53,41.96167,,-87.65464,60613,Sheridan Rd & Montrose Ave,,Sheridan Rd & Montrose Ave,IN_SERVICE,1,In Service,False,23
0,13,9,Chicago,232,True,K3_FULL,13273,2019-05-16 13:56:07,41.949275,,-87.646303,60613,Pine Grove Ave & Waveland Ave,,Pine Grove Ave & Waveland Ave,IN_SERVICE,1,In Service,False,23
0,1,15,Chicago,233,True,K3_FULL,13409,2019-05-16 13:57:54,41.883165,,-87.6511,60607,Sangamon St & Washington Blvd (*),,Sangamon St & Washington Blvd (*),IN_SERVICE,1,In Service,False,16
0,7,12,Chicago,234,True,K3_FULL,13316,2019-05-16 13:54:35,41.961588,,-87.666036,60613,Clark St & Montrose Ave,Old Kiosk from Clinton & Polk which is a Smart Panel now,Clark St & Montrose Ave,IN_SERVICE,1,In Service,False,19
0,4,11,Chicago,236,True,K3_FULL,13410,2019-05-16 13:56:52,41.907626,,-87.638566,60610,Sedgwick St & Schiller St,,Sedgwick St & Schiller St,IN_SERVICE,1,In Service,False,15
0,2,17,Chicago,237,True,K3_FULL,13214,2019-05-16 13:57:33,41.842052,,-87.617,60616,MLK Jr Dr & 29th St,,MLK Jr Dr & 29th St,IN_SERVICE,1,In Service,False,19
0,10,6,Chicago,238,True,K3_FULL,13092,2019-05-16 13:57:58,41.961406,,-87.676169,60613,Wolcott (Ravenswood) Ave & Montrose Ave (*),,Wolcott (Ravenswood) Ave & Montrose Ave (*),IN_SERVICE,1,In Service,False,16
0,11,8,Chicago,239,True,K3_FULL,13112,2019-05-16 13:57:54,41.966555,,-87.688487,60625,Western Ave & Leland Ave,,Western Ave & Leland Ave,IN_SERVICE,1,In Service,False,19
0,21,6,Chicago,240,True,K3_FULL,13063,2019-05-16 13:56:56,41.954245,,-87.654406,60613,Sheridan Rd & Irving Park Rd,,Sheridan Rd & Irving Park Rd,IN_SERVICE,1,In Service,False,27
0,3,16,Chicago,241,True,K3_FULL,13168,2019-05-16 13:56:28,41.871737,,-87.65103,60607,Morgan St & Polk St,,Morgan St & Polk St,IN_SERVICE,1,In Service,False,19
0,4,11,Chicago,242,True,K3_FULL,13093,2019-05-16 13:54:03,41.967094,,-87.679028,60625,Damen Ave & Leland Ave,,Damen Ave & Leland Ave,IN_SERVICE,1,In Service,False,15
0,6,9,Chicago,243,True,K3_FULL,13126,2019-05-16 13:58:20,41.963004,,-87.684781,60625,Lincoln Ave & Sunnyside Ave,,Lincoln Ave & Sunnyside Ave,IN_SERVICE,1,In Service,False,15
0,14,5,Chicago,244,True,K3_FULL,13087,2019-05-16 13:56:44,41.95469,,-87.67393,60613,Ravenswood Ave & Irving Park Rd,,Ravenswood Ave & Irving Park Rd,IN_SERVICE,1,In Service,False,19
0,16,7,Chicago,245,True,K3_FULL,13389,2019-05-16 13:55:57,41.961004,,-87.649603,60613,Clarendon Ave & Junior Ter,,Clarendon Ave & Junior Ter,IN_SERVICE,1,In Service,False,23
0,7,4,Chicago,246,True,K3_FULL,13249,2019-05-16 13:55:34,41.956057,,-87.668835,60613,Ashland Ave & Belle Plaine Ave,,Ashland Ave & Belle Plaine Ave,IN_SERVICE,1,In Service,False,11
0,9,9,Chicago,247,True,K3_FULL,13361,2019-05-16 13:55:03,41.795212,,-87.580715,60615,Shore Dr & 55th St,,Shore Dr & 55th St,IN_SERVICE,1,In Service,False,19
0,6,13,Chicago,248,True,K3_FULL,13362,2019-05-16 13:57:29,41.795264,,-87.596471,60615,Woodlawn Ave & 55th St,,Woodlawn Ave & 55th St,IN_SERVICE,1,In Service,False,19
0,17,14,Chicago,249,True,K3_FULL,13388,2019-05-16 13:55:31,41.963982,,-87.638181,60613,Montrose Harbor,,Montrose Harbor,IN_SERVICE,1,In Service,False,31
0,8,11,Chicago,250,True,K3_FULL,13269,2019-05-16 13:57:24,41.936083,,-87.669807,60657,Ashland Ave & Wellington Ave,,Ashland Ave & Wellington Ave,IN_SERVICE,1,In Service,False,19
0,8,7,Chicago,251,True,K3_FULL,13385,2019-05-16 13:55:11,41.967968,,-87.650001,60640,Clarendon Ave & Leland Ave,,Clarendon Ave & Leland Ave,IN_SERVICE,1,In Service,False,15
0,7,8,Chicago,252,True,K3_FULL,13396,2019-05-16 13:55:08,41.809835,,-87.599383,60653,Greenwood Ave & 47th St,,Greenwood Ave & 47th St,IN_SERVICE,1,In Service,False,15
0,8,7,Chicago,253,True,K3_FULL,13104,2019-05-16 13:58:08,41.968812,,-87.657659,60640,Winthrop Ave & Lawrence Ave,,Winthrop Ave & Lawrence Ave,IN_SERVICE,1,In Service,False,15
0,1,14,Chicago,254,True,K3_FULL,13324,2019-05-16 13:55:57,41.954383,,-87.648043,60613,Pine Grove Ave & Irving Park Rd,,Pine Grove Ave & Irving Park Rd,IN_SERVICE,1,In Service,False,15
0,1,37,Chicago,255,True,K3_FULL,13309,2019-05-16 13:56:09,41.867888,,-87.623041,60605,Indiana Ave & Roosevelt Rd,,Indiana Ave & Roosevelt Rd,IN_SERVICE,1,In Service,False,39
0,2,13,Chicago,256,True,K3_FULL,13323,2019-05-16 13:55:52,41.952833,,-87.649993,60613,Broadway & Sheridan Rd,,Broadway & Sheridan Rd,IN_SERVICE,1,In Service,False,15
0,4,11,Chicago,257,True,K3_FULL,13253,2019-05-16 13:57:01,41.948797,,-87.675278,60613,Lincoln Ave & Waveland Ave,,Lincoln Ave & Waveland Ave,IN_SERVICE,1,In Service,False,15
0,9,18,Chicago,258,True,K3_FULL,13145,2019-05-16 13:56:26,41.929465,,-87.684158,60647,Logan Blvd & Elston Ave,,Logan Blvd & Elston Ave,IN_SERVICE,1,In Service,False,27
0,4,11,Chicago,259,True,K3_FULL,13259,2019-05-16 13:56:49,41.918121,,-87.696972,60647,California Ave & Francis Pl,,California Ave & Francis Pl,IN_SERVICE,1,In Service,False,15
0,27,8,Chicago,260,True,K3_FULL,13085,2019-05-16 13:56:38,41.929567,,-87.707857,60647,Kedzie Ave & Milwaukee Ave,,Kedzie Ave & Milwaukee Ave,IN_SERVICE,1,In Service,False,35
0,14,1,Chicago,261,True,K3_FULL,13080,2019-05-16 13:55:11,41.871514,,-87.669886,60612,Hermitage Ave & Polk St,,Hermitage Ave & Polk St,IN_SERVICE,1,In Service,False,15
0,5,6,Chicago,262,True,K3_FULL,13414,2019-05-16 13:57:15,41.827059,On Street,-87.64572,60609,Halsted St & 37th St,,Halsted St & 37th St,IN_SERVICE,1,In Service,False,11
0,3,8,Chicago,263,True,K3_FULL,13215,2019-05-16 13:57:28,41.836208,,-87.613533,60616,Rhodes Ave & 32nd St,,Rhodes Ave & 32nd St,IN_SERVICE,1,In Service,False,11
0,13,6,Chicago,264,True,K3_FULL,13048,2019-05-16 13:54:56,41.886835,,-87.62232,60601,Stetson Ave & South Water St,,Stetson Ave & South Water St,IN_SERVICE,1,In Service,False,19
0,9,6,Chicago,265,True,K3_FULL,13346,2019-05-16 13:56:59,41.822985,,-87.6071,60653,Cottage Grove Ave & Oakwood Blvd,,Cottage Grove Ave & Oakwood Blvd,IN_SERVICE,1,In Service,False,15
0,8,7,Chicago,267,True,K3_FULL,13117,2019-05-16 13:57:48,41.809443,,-87.591875,60615,Lake Park Ave & 47th St,,Lake Park Ave & 47th St,IN_SERVICE,1,In Service,False,15
0,19,20,Chicago,268,True,K3_FULL,13328,2019-05-16 13:57:58,41.911722,,-87.626804,60610,Lake Shore Dr & North Blvd,,Lake Shore Dr & North Blvd,IN_SERVICE,1,In Service,False,39
0,7,4,Chicago,270,True,K3_FULL,15498,2019-05-16 13:55:09,41.7586696704,,-87.586882871,60619,Stony Island Ave & 75th St,,Stony Island Ave & 75th St,IN_SERVICE,1,In Service,False,11
0,7,4,Chicago,271,True,K3_FULL,13086,2019-05-16 13:56:07,41.816499,,-87.606582,60653,Cottage Grove Ave & 43rd St,,Cottage Grove Ave & 43rd St,IN_SERVICE,1,In Service,False,11
0,2,9,Chicago,272,True,K3_FULL,13219,2019-05-16 13:55:01,41.838842,,-87.621857,60616,Indiana Ave & 31st St,,Indiana Ave & 31st St,IN_SERVICE,1,In Service,False,11
0,1,21,Chicago,273,True,K3_FULL,13150,2019-05-16 13:54:56,41.857813,,-87.62455,60616,Michigan Ave & 18th St,,Michigan Ave & 18th St,IN_SERVICE,1,In Service,False,23
0,6,9,Chicago,274,True,K3_FULL,13304,2019-05-16 13:54:15,41.861267,,-87.656625,60608,Racine Ave & 15th St,,Racine Ave & 15th St,IN_SERVICE,1,In Service,False,15
0,13,2,Chicago,275,True,K3_FULL,13354,2019-05-16 13:56:25,41.865234,,-87.666507,60608,Ashland Ave & 13th St,,Ashland Ave & 13th St,IN_SERVICE,1,In Service,False,15
0,0,11,Chicago,276,True,K3_FULL,13258,2019-05-16 13:55:35,41.91044,,-87.6972,60647,California Ave & North Ave,,California Ave & North Ave,IN_SERVICE,1,In Service,False,11
0,4,11,Chicago,277,True,K3_FULL,13434,2019-05-16 13:55:00,41.891072,Off Street,-87.666611,60642,Ashland Ave & Grand Ave,,Ashland Ave & Grand Ave,IN_SERVICE,1,In Service,False,15
0,3,12,Chicago,278,True,K3_FULL,13417,2019-05-16 13:54:47,41.830629,On Street,-87.64129,60609,Wallace St & 35th St,,Wallace St & 35th St,IN_SERVICE,1,In Service,False,15
0,9,7,Chicago,279,True,K3_FULL,13413,2019-05-16 13:54:30,41.830661,,-87.647172,60609,Halsted St & 35th St (*),,Halsted St & 35th St (*),IN_SERVICE,1,In Service,False,16
0,4,7,Chicago,280,True,K3_FULL,13097,2019-05-16 13:54:35,41.8378,,-87.65114,60608,Morgan St & 31st St,,Morgan St & 31st St,IN_SERVICE,1,In Service,False,11
0,4,3,Chicago,281,True,K3_FULL,13393,2019-05-16 13:54:08,41.84847,,-87.685109,60608,Western Ave & 24th St,,Western Ave & 24th St,IN_SERVICE,1,In Service,False,7
0,8,7,Chicago,282,True,K3_FULL,13161,2019-05-16 13:55:31,41.864883,,-87.647071,60607,Halsted St & Maxwell St,,Halsted St & Maxwell St,IN_SERVICE,1,In Service,False,15
0,21,14,Chicago,283,True,K3_FULL,13032,2019-05-16 13:56:42,41.878166,,-87.631929,60604,LaSalle St & Jackson Blvd,,LaSalle St & Jackson Blvd,IN_SERVICE,1,In Service,False,35
0,12,11,Chicago,284,True,K3_FULL,13340,2019-05-16 13:57:40,41.87785,,-87.62408,60604,Michigan Ave & Jackson Blvd,,Michigan Ave & Jackson Blvd,IN_SERVICE,1,In Service,False,23
0,7,11,Chicago,285,True,K3_FULL,13432,2019-05-16 13:56:30,41.889587,Off Street,-87.671956,60622,Wood St & Hubbard St,,Wood St & Hubbard St,IN_SERVICE,1,In Service,False,19
0,21,2,Chicago,286,True,K3_FULL,13007,2019-05-16 13:57:44,41.878724,,-87.634793,60606,Franklin St & Quincy St,,Franklin St & Quincy St,IN_SERVICE,1,In Service,False,23
0,17,10,Chicago,287,True,K3_FULL,13057,2019-05-16 13:56:22,41.880317,,-87.635185,60606,Franklin St & Monroe St,,Franklin St & Monroe St,IN_SERVICE,1,In Service,False,27
0,8,7,Chicago,288,True,K3_FULL,13184,2019-05-16 13:57:52,41.918084,Off Street,-87.643749,60614,Larrabee St & Armitage Ave,,Larrabee St & Armitage Ave,IN_SERVICE,1,In Service,False,15
0,2,17,Chicago,289,True,K3_FULL,13182,2019-05-16 13:57:38,41.912133,,-87.634656,60614,Wells St & Concord Ln,Wells St & Concord Ln,Wells St & Concord Ln,IN_SERVICE,1,In Service,False,19
0,7,8,Chicago,290,True,K3_FULL,13292,2019-05-16 13:57:23,41.921525,,-87.707322,60647,Kedzie Ave & Palmer Ct,,Kedzie Ave & Palmer Ct,IN_SERVICE,1,In Service,False,15
0,3,16,Chicago,291,True,K3_FULL,13302,2019-05-16 13:58:03,41.906724,,-87.63483,60610,Wells St & Evergreen Ave,,Wells St & Evergreen Ave,IN_SERVICE,1,In Service,False,19
0,6,5,Chicago,292,True,K3_FULL,13317,2019-05-16 13:57:37,41.957081,,-87.664199,60613,Southport Ave & Clark St,,Southport Ave & Clark St,IN_SERVICE,1,In Service,False,11
0,22,1,Chicago,293,True,K3_FULL,13074,2019-05-16 13:55:07,41.965221,,-87.658139,60640,Broadway & Wilson Ave,,Broadway & Wilson Ave,IN_SERVICE,1,In Service,False,23
0,5,10,Chicago,294,True,K3_FULL,13109,2019-05-16 13:57:44,41.978353,,-87.659753,60640,Broadway & Berwyn Ave,,Broadway & Berwyn Ave,IN_SERVICE,1,In Service,False,15
0,11,8,Chicago,295,True,K3_FULL,13108,2019-05-16 13:55:57,41.973815,,-87.65966,60640,Broadway & Argyle St,,Broadway & Argyle St,IN_SERVICE,1,In Service,False,19
0,8,10,Chicago,296,True,K3_FULL,13277,2019-05-16 13:56:16,41.940106,,-87.645451,60634,Broadway & Belmont Ave,,Broadway & Belmont Ave,IN_SERVICE,1,In Service,False,19
0,7,8,Chicago,297,True,K3_FULL,13250,2019-05-16 13:56:02,41.961507,,-87.671387,60613,Paulina St & Montrose Ave,,Paulina St & Montrose Ave,IN_SERVICE,1,In Service,False,15
0,8,7,Chicago,298,True,K3_FULL,13252,2019-05-16 13:55:34,41.955927,,-87.679259,60618,Lincoln Ave & Belle Plaine Ave,,Lincoln Ave & Belle Plaine Ave,IN_SERVICE,1,In Service,False,15
0,2,13,Chicago,299,True,K3_FULL,13127,2019-05-16 13:56:27,41.94367,,-87.64895,60657,Halsted St & Roscoe St,,Halsted St & Roscoe St,IN_SERVICE,1,In Service,False,15
0,2,17,Chicago,300,True,K3_FULL,13137,2019-05-16 13:58:06,41.937725,,-87.644095,60657,Broadway & Barry Ave,,Broadway & Barry Ave,IN_SERVICE,1,In Service,False,19
0,6,13,Chicago,301,True,K3_FULL,13200,2019-05-16 13:56:53,41.907993,,-87.631501,60610,Clark St & Schiller St,,Clark St & Schiller St,IN_SERVICE,1,In Service,False,19
0,15,15,Chicago,302,True,K3_FULL,13211,2019-05-16 13:55:27,41.928712,,-87.653833,60614,Sheffield Ave & Wrightwood Ave,,Sheffield Ave & Wrightwood Ave,IN_SERVICE,1,In Service,False,31
0,5,18,Chicago,303,True,K3_FULL,13278,2019-05-16 13:58:19,41.945529,,-87.646439,60613,Broadway & Cornelia Ave,,Broadway & Cornelia Ave,IN_SERVICE,1,In Service,False,23
0,9,6,Chicago,304,True,K3_FULL,13325,2019-05-16 13:55:08,41.949074,,-87.648636,60613,Broadway & Waveland Ave,,Broadway & Waveland Ave,IN_SERVICE,1,In Service,False,15
0,16,7,Chicago,305,True,K3_FULL,13241,2019-05-16 13:57:24,41.902893,,-87.687275,60622,Western Ave & Division St,,Western Ave & Division St,IN_SERVICE,1,In Service,False,23
0,16,3,Chicago,306,True,K3_FULL,13374,2019-05-16 13:48:25,41.958494,,-87.654966,60613,Sheridan Rd & Buena Ave,,Sheridan Rd & Buena Ave,IN_SERVICE,1,In Service,False,19
0,6,9,Chicago,307,True,K3_FULL,13186,2019-05-16 13:56:16,41.920771,,-87.663712,60614,Southport Ave & Clybourn Ave,,Southport Ave & Clybourn Ave,IN_SERVICE,1,In Service,False,15
0,7,4,Chicago,308,True,K3_FULL,13144,2019-05-16 13:55:11,41.943403,,-87.679618,60618,Seeley Ave & Roscoe St,,Seeley Ave & Roscoe St,IN_SERVICE,1,In Service,False,11
0,5,6,Chicago,309,True,K3_FULL,13286,2019-05-16 13:56:36,41.917805,,-87.682437,60647,Leavitt St & Armitage Ave,,Leavitt St & Armitage Ave,IN_SERVICE,1,In Service,False,11
0,3,8,Chicago,310,True,K3_FULL,13288,2019-05-16 13:56:01,41.920082,,-87.677855,60647,Damen Ave & Charleston St,,Damen Ave & Charleston St,IN_SERVICE,1,In Service,False,11
0,2,17,Chicago,311,True,K3_FULL,13237,2019-05-16 13:58:20,41.968885,,-87.684001,60625,Leavitt St & Lawrence Ave,,Leavitt St & Lawrence Ave,IN_SERVICE,1,In Service,False,19
0,0,15,Chicago,312,True,K3_FULL,13379,2019-05-16 13:55:43,41.957879,,-87.649519,60613,Clarendon Ave & Gordon Ter,,Clarendon Ave & Gordon Ter,IN_SERVICE,1,In Service,False,15
0,9,9,Chicago,313,True,K3_FULL,13147,2019-05-16 13:55:20,41.925858,,-87.638973,60614,Lakeview Ave & Fullerton Pkwy,,Lakeview Ave & Fullerton Pkwy,IN_SERVICE,1,In Service,False,19
0,9,6,Chicago,314,True,K3_FULL,13251,2019-05-16 13:56:05,41.957921,,-87.673567,60613,Ravenswood Ave & Berteau Ave,,Ravenswood Ave & Berteau Ave,IN_SERVICE,1,In Service,False,15
0,1,22,Chicago,315,True,K3_FULL,13255,2019-05-16 13:54:27,41.912919,,-87.664169,60642,Elston Ave & Wabansia Ave,Formerly Leavitt St & Hirsch St,Elston Ave & Wabansia Ave,IN_SERVICE,1,In Service,False,23
0,8,11,Chicago,316,True,K3_FULL,13315,2019-05-16 13:55:40,41.96325,,-87.679258,60625,Damen Ave & Sunnyside Ave,,Damen Ave & Sunnyside Ave,IN_SERVICE,1,In Service,False,19
0,23,0,Chicago,317,True,K3_FULL,13285,2019-05-16 13:54:29,41.869154,,-87.671045,60612,Wood St & Taylor St,,Wood St & Taylor St,IN_SERVICE,1,In Service,False,23
0,9,6,Chicago,318,True,K3_FULL,13321,2019-05-16 13:57:44,41.954177,,-87.664358,60613,Southport Ave & Irving Park Rd,,Southport Ave & Irving Park Rd,IN_SERVICE,1,In Service,False,15
0,9,6,Chicago,319,True,K3_FULL,13294,2019-05-16 13:56:06,41.932595,,-87.665939,60657,Greenview Ave & Diversey Pkwy,,Greenview Ave & Diversey Pkwy,IN_SERVICE,1,In Service,False,15
0,1,18,Chicago,320,True,K3_FULL,13332,2019-05-16 13:54:17,41.872187,,-87.661501,60607,Loomis St & Lexington St,,Loomis St & Lexington St,IN_SERVICE,1,In Service,False,19
0,0,19,Chicago,321,True,K3_FULL,13054,2019-05-16 13:57:09,41.870769,,-87.625734,60605,Wabash Ave & 9th St,Reloc from Wabash & 8th,Wabash Ave & 9th St,IN_SERVICE,1,In Service,False,19
0,11,8,Chicago,322,True,K3_FULL,13397,2019-05-16 13:57:31,41.799568,,-87.594747,60615,Kimbark Ave & 53rd St,,Kimbark Ave & 53rd St,IN_SERVICE,1,In Service,False,19
0,2,17,Chicago,323,True,K3_FULL,13384,2019-05-16 13:53:46,41.969517,,-87.654691,60640,Sheridan Rd & Lawrence Ave,,Sheridan Rd & Lawrence Ave,IN_SERVICE,1,In Service,False,19
0,0,15,Chicago,324,True,K3_FULL,13276,2019-05-16 13:54:05,41.93132,,-87.638742,60614,Stockton Dr & Wrightwood Ave,,Stockton Dr & Wrightwood Ave,IN_SERVICE,1,In Service,False,15
0,10,9,Chicago,325,True,K3_FULL,13392,2019-05-16 13:53:51,41.973255,,-87.6697,60640,Clark St & Winnemac Ave (Temp),,Clark St & Winnemac Ave (Temp),IN_SERVICE,1,In Service,False,19
0,11,8,Chicago,326,True,K3_FULL,13239,2019-05-16 13:56:17,41.967096,,-87.667429,60640,Clark St & Leland Ave,,Clark St & Leland Ave,IN_SERVICE,1,In Service,False,19
0,6,13,Chicago,327,True,K3_FULL,13188,2019-05-16 13:54:21,41.92154,,-87.653818,60614,Sheffield Ave & Webster Ave,,Sheffield Ave & Webster Ave,IN_SERVICE,1,In Service,False,19
0,19,0,Chicago,328,True,K3_FULL,13365,2019-05-16 13:57:56,41.788746,,-87.601334,60637,Ellis Ave & 58th St,,Ellis Ave & 58th St,IN_SERVICE,1,In Service,False,19
0,8,15,Chicago,329,True,K3_FULL,13347,2019-05-16 13:55:02,41.932588,,-87.636427,60657,Lake Shore Dr & Diversey Pkwy,,Lake Shore Dr & Diversey Pkwy,IN_SERVICE,1,In Service,False,23
0,12,7,Chicago,330,True,K3_FULL,13077,2019-05-16 13:54:45,41.946176,,-87.673308,60657,Lincoln Ave & Addison St,,Lincoln Ave & Addison St,IN_SERVICE,1,In Service,False,19
0,19,8,Chicago,331,True,K3_FULL,13176,2019-05-16 13:54:09,41.909668,,-87.648128,60642,Halsted St & Clybourn Ave (*),,Halsted St & Clybourn Ave (*),IN_SERVICE,1,In Service,False,28
0,0,19,Chicago,332,True,K3_FULL,13208,2019-05-16 13:56:10,41.93314,,-87.64776,60657,Burling St (Halsted) & Diversey Pkwy (Temp),,Burling St (Halsted) & Diversey Pkwy (Temp),IN_SERVICE,1,In Service,False,19
0,3,12,Chicago,333,True,K3_FULL,13224,2019-05-16 13:57:07,41.907066,,-87.667252,60622,Ashland Ave & Blackhawk St,,Ashland Ave & Blackhawk St,IN_SERVICE,1,In Service,False,15
0,10,9,Chicago,334,True,K3_FULL,13233,2019-05-16 13:54:07,41.940775,,-87.639192,60657,Lake Shore Dr & Belmont Ave,,Lake Shore Dr & Belmont Ave,IN_SERVICE,1,In Service,False,19
0,1,14,Chicago,335,True,K3_FULL,13345,2019-05-16 13:55:02,41.831379,,-87.618034,60616,Calumet Ave & 35th St,,Calumet Ave & 35th St,IN_SERVICE,1,In Service,False,15
0,5,10,Chicago,336,True,K3_FULL,13422,2019-05-16 13:53:57,41.809855,Off Street,-87.606755,60653,Cottage Grove Ave & 47th St,,Cottage Grove Ave & 47th St,IN_SERVICE,1,In Service,False,15
0,0,19,Chicago,337,True,K3_FULL,13303,2019-05-16 13:55:04,41.89675,,-87.63089,60654,Clark St & Chicago Ave,,Clark St & Chicago Ave,IN_SERVICE,1,In Service,False,19
0,5,10,Chicago,338,True,K3_FULL,13102,2019-05-16 13:55:22,41.857611,,-87.619407,60616,Calumet Ave & 18th St,,Calumet Ave & 18th St,IN_SERVICE,1,In Service,False,15
0,5,6,Chicago,339,True,K3_FULL,13404,2019-05-16 13:57:11,41.838198,,-87.645143,60616,Emerald Ave & 31st St,,Emerald Ave & 31st St,IN_SERVICE,1,In Service,False,11
0,6,9,Chicago,340,True,K3_FULL,13209,2019-05-16 13:58:10,41.929546,,-87.643118,60614,Clark St & Wrightwood Ave,,Clark St & Wrightwood Ave,IN_SERVICE,1,In Service,False,15
0,9,30,Chicago,341,True,K3_FULL,13431,2019-05-16 13:57:25,41.866095,Off Street,-87.607267,60605,Adler Planetarium,,Adler Planetarium,IN_SERVICE,1,In Service,False,39
0,21,2,Chicago,342,True,K3_FULL,13284,2019-05-16 13:58:04,41.871262,,-87.673688,60612,Wolcott Ave & Polk St,,Wolcott Ave & Polk St,IN_SERVICE,1,In Service,False,23
0,4,11,Chicago,343,True,K3_FULL,13297,2019-05-16 13:55:22,41.928887,,-87.658971,60614,Racine Ave & Wrightwood Ave,,Racine Ave & Wrightwood Ave,IN_SERVICE,1,In Service,False,15
0,39,8,Chicago,344,True,K3_FULL,13026,2019-05-16 13:57:15,41.96909,,-87.674237,60640,Ravenswood Ave & Lawrence Ave,,Ravenswood Ave & Lawrence Ave,IN_SERVICE,1,In Service,False,47
0,1,18,Chicago,345,True,K3_FULL,13119,2019-05-16 13:54:48,41.793242,,-87.587782,60637,Lake Park Ave & 56th St,,Lake Park Ave & 56th St,IN_SERVICE,1,In Service,False,19
0,7,8,Chicago,346,True,K3_FULL,13353,2019-05-16 13:54:43,41.88283,,-87.661206,60607,Ada St & Washington Blvd,,Ada St & Washington Blvd,IN_SERVICE,1,In Service,False,15
0,8,7,Chicago,347,True,K3_FULL,13319,2019-05-16 13:55:52,41.950687,,-87.6687,60613,Ashland Ave & Grace St,,Ashland Ave & Grace St,IN_SERVICE,1,In Service,False,15
0,13,2,Chicago,348,True,K3_FULL,13096,2019-05-16 13:58:17,41.854016,,-87.695445,60608,California Ave & 21st St,,California Ave & 21st St,IN_SERVICE,1,In Service,False,15
0,6,9,Chicago,349,True,K3_FULL,13210,2019-05-16 13:57:54,41.929143,,-87.649077,60614,Halsted St & Wrightwood Ave,,Halsted St & Wrightwood Ave,IN_SERVICE,1,In Service,False,15
0,1,14,Chicago,350,True,K3_FULL,13247,2019-05-16 13:58:17,41.895966,,-87.667747,60622,Ashland Ave & Chicago Ave,,Ashland Ave & Chicago Ave,IN_SERVICE,1,In Service,False,15
0,6,9,Chicago,351,True,K3_FULL,13440,2019-05-16 13:56:47,41.803038,Off Street,-87.606615,60615,Cottage Grove Ave & 51st St,,Cottage Grove Ave & 51st St,IN_SERVICE,1,In Service,False,15
0,5,6,Chicago,352,True,K3_FULL,15493,2019-05-16 13:56:47,41.77351755125,,-87.5771428255,60649,Jeffery Blvd & 67th St,,Jeffery Blvd & 67th St,IN_SERVICE,1,In Service,False,11
0,7,8,Chicago,353,True,K3_FULL,15561,2019-05-16 13:55:19,42.01256011541,,-87.6743671152,60626,Clark St & Touhy Ave,,Clark St & Touhy Ave,IN_SERVICE,1,In Service,False,15
0,3,12,Chicago,354,True,K3_FULL,15562,2019-05-16 13:55:07,42.01058656284,,-87.6624120948,60626,Sheridan Rd & Greenleaf Ave,,Sheridan Rd & Greenleaf Ave,IN_SERVICE,1,In Service,False,15
0,4,11,Chicago,355,True,K3_FULL,15494,2019-05-16 13:56:51,41.773643,,-87.567514,60649,South Shore Dr & 67th St,,South Shore Dr & 67th St,IN_SERVICE,1,In Service,False,15
0,7,4,Chicago,356,True,K3_FULL,15495,2019-05-16 13:55:41,41.7664929373,,-87.5864608775,60649,Stony Island Ave & 71st St,,Stony Island Ave & 71st St,IN_SERVICE,1,In Service,False,11
0,9,14,Chicago,359,True,K3_FULL,15524,2019-05-16 13:58:15,41.90348607004,,-87.6433534936,60610,Larrabee St & Division St,,Larrabee St & Division St,IN_SERVICE,1,In Service,False,23
0,11,8,Chicago,364,True,K3_FULL,15527,2019-05-16 13:55:02,41.90021949323,,-87.6429854676,60610,Larrabee St & Oak St,,Larrabee St & Oak St,IN_SERVICE,1,In Service,False,19
0,1,14,Chicago,365,True,K3_FULL,15528,2019-05-16 13:55:18,41.89936843921,,-87.6484798752,60642,Halsted St & North Branch St,,Halsted St & North Branch St,IN_SERVICE,1,In Service,False,15
0,5,6,Chicago,366,True,K3_FULL,15441,2019-05-16 13:57:03,41.84163253965,,-87.6574349533,60608,Loomis St & Archer Ave,,Loomis St & Archer Ave,IN_SERVICE,1,In Service,False,11
0,6,9,Chicago,367,True,K3_FULL,15446,2019-05-16 13:56:45,41.83069611252,,-87.6559759116,60609,Racine Ave & 35th St,,Racine Ave & 35th St,IN_SERVICE,1,In Service,False,15
0,1,14,Chicago,368,True,K3_FULL,15442,2019-05-16 13:57:42,41.83920868403,,-87.6656098589,60608,Ashland Ave & Archer Ave,,Ashland Ave & Archer Ave,IN_SERVICE,1,In Service,False,15
0,4,7,Chicago,369,True,K3_FULL,15694,2019-05-16 13:57:56,41.83010465416,NA1,-87.6702983089,60609,Wood St & 35th St,,Wood St & 35th St,IN_SERVICE,1,In Service,False,11
0,10,5,Chicago,370,True,K3_FULL,15546,2019-05-16 13:56:55,41.85418424947,,-87.6191537415,60616,Calumet Ave & 21st St,,Calumet Ave & 21st St,IN_SERVICE,1,In Service,False,15
0,5,6,Chicago,373,True,K3_FULL,15661,2019-05-16 13:57:26,41.89546530305,,-87.7061278837,60622,Kedzie Ave & Chicago Ave,,Kedzie Ave & Chicago Ave,IN_SERVICE,1,In Service,False,11
0,0,23,Chicago,374,True,K3_FULL,15662,2019-05-16 13:54:58,41.89841768945,,-87.6865960164,60622,Western Ave & Walton St,,Western Ave & Walton St,IN_SERVICE,1,In Service,False,23
0,6,5,Chicago,375,True,K3_FULL,15663,2019-05-16 13:57:03,41.889727,,-87.70103,60612,Sacramento Blvd & Franklin Blvd,,Sacramento Blvd & Franklin Blvd,IN_SERVICE,1,In Service,False,11
0,9,26,Chicago,376,True,K3_FULL,15664,2019-05-16 13:53:49,41.88949181977,,-87.6882193648,60612,Artesian Ave & Hubbard St,,Artesian Ave & Hubbard St,IN_SERVICE,1,In Service,False,35
0,12,3,Chicago,377,True,K3_FULL,15665,2019-05-16 13:56:26,41.88460328501,,-87.7063037436,60612,Kedzie Ave & Lake St,,Kedzie Ave & Lake St,IN_SERVICE,1,In Service,False,15
0,7,4,Chicago,378,True,K3_FULL,15666,2019-05-16 13:56:22,41.88445395657,,-87.6962981368,606012,California Ave & Lake St,,California Ave & Lake St,IN_SERVICE,1,In Service,False,11
0,9,6,Chicago,381,True,K3_FULL,15667,2019-05-16 13:54:51,41.8797877089,,-87.686112808,60612,Western Ave & Monroe St,,Western Ave & Monroe St,IN_SERVICE,1,In Service,False,15
0,1,18,Chicago,382,True,K3_FULL,15668,2019-05-16 13:55:27,41.87474885079,,-87.6864452757,606012,Western Ave & Congress Pkwy,,Western Ave & Congress Pkwy,IN_SERVICE,1,In Service,False,19
0,13,17,Chicago,383,True,K3_FULL,15669,2019-05-16 13:54:57,41.87295,Ashland Ave & Harrison St (Temp),-87.66913,60612,Paulina St & Flournoy St,,Paulina St & Flournoy St,IN_SERVICE,1,In Service,False,31
0,2,9,Chicago,384,True,K3_FULL,15591,2019-05-16 13:57:20,41.80183164049,,-87.645213904,60609,Halsted St & 51st St,,Halsted St & 51st St,IN_SERVICE,1,In Service,False,11
0,6,5,Chicago,385,True,K3_FULL,15592,2019-05-16 13:54:09,41.794982,,-87.633124,60609,Princeton Ave & Garfield Blvd,,Princeton Ave & Garfield Blvd,IN_SERVICE,1,In Service,False,11
0,1,10,Chicago,386,True,K3_FULL,15593,2019-05-16 13:53:45,41.79292964599,,-87.6449900565,60621,Halsted St & 56th St,,Halsted St & 56th St,IN_SERVICE,1,In Service,False,11
0,6,5,Chicago,388,True,K3_FULL,15595,2019-05-16 13:55:10,41.77938114228,,-87.6446208145,60621,Halsted St & 63rd St,,Halsted St & 63rd St,IN_SERVICE,1,In Service,False,11
0,4,7,Chicago,390,True,K3_FULL,15596,2019-05-16 13:54:52,41.78007963264,,-87.6297463052,60621,Wentworth Ave & 63rd St,,Wentworth Ave & 63rd St,IN_SERVICE,1,In Service,False,11
0,4,7,Chicago,391,True,K3_FULL,15597,2019-05-16 13:57:07,41.76906172032,,-87.6446135779,60621,Halsted St & 69th St,,Halsted St & 69th St,IN_SERVICE,1,In Service,False,11
0,7,4,Chicago,392,True,K3_FULL,15598,2019-05-16 13:54:19,41.76929308995,,-87.6281959291,60621,Perry Ave & 69th St,,Perry Ave & 69th St,IN_SERVICE,1,In Service,False,11
0,4,7,Chicago,393,True,K3_FULL,15599,2019-05-16 13:57:34,41.76550800581,,-87.616917925,60619,Calumet Ave & 71st St,,Calumet Ave & 71st St,IN_SERVICE,1,In Service,False,11
0,3,12,Chicago,394,True,K3_FULL,15551,2019-05-16 13:54:07,41.870816,,-87.631246,60605,Clark St & 9th St (AMLI),,Clark St & 9th St (AMLI),IN_SERVICE,1,In Service,False,15
0,4,7,Chicago,395,True,K3_FULL,15499,2019-05-16 13:54:52,41.75712006802,,-87.5758393587,60649,Jeffery Blvd & 76th St,,Jeffery Blvd & 76th St,IN_SERVICE,1,In Service,False,11
0,3,8,Chicago,396,True,K3_FULL,15500,2019-05-16 13:55:04,41.758768,,-87.56644,60649,Yates Blvd & 75th St,,Yates Blvd & 75th St,IN_SERVICE,1,In Service,False,11
0,4,11,Chicago,398,True,K3_FULL,15502,2019-05-16 13:56:34,41.75787144829,,-87.54938625,60649,Rainbow Beach,,Rainbow Beach,IN_SERVICE,1,In Service,False,15
0,2,9,Chicago,399,True,K3_FULL,15506,2019-05-16 13:54:42,41.76218896038,,-87.55927465,60649,South Shore Dr & 74th St,,South Shore Dr & 74th St,IN_SERVICE,1,In Service,False,11
0,4,7,Chicago,400,True,K3_FULL,15507,2019-05-16 13:58:03,41.76571903697,,-87.604959713,60619,Cottage Grove Ave & 71st St,,Cottage Grove Ave & 71st St,IN_SERVICE,1,In Service,False,11
0,0,11,Chicago,401,True,K3_FULL,15443,2019-05-16 13:55:04,41.842733,,-87.635491,60616,Shields Ave & 28th Pl,,Shields Ave & 28th Pl,IN_SERVICE,1,In Service,False,11
0,5,10,Chicago,402,True,K3_FULL,15444,2019-05-16 13:58:02,41.838464,,-87.635406,60616,Shields Ave & 31st St,,Shields Ave & 31st St,IN_SERVICE,1,In Service,False,15
0,3,12,Chicago,403,True,K3_FULL,15445,2019-05-16 13:54:09,41.83452988563,,-87.6318229814,60616,Wentworth Ave & 33rd St,,Wentworth Ave & 33rd St,IN_SERVICE,1,In Service,False,15
0,4,11,Chicago,405,True,K3_FULL,15447,2019-05-16 13:54:22,41.830777,,-87.632504,60616,Wentworth Ave & 35th St,,Wentworth Ave & 35th St,IN_SERVICE,1,In Service,False,15
0,3,16,Chicago,406,True,K3_FULL,15448,2019-05-16 13:55:37,41.83127423549,,-87.6087991946,60616,Lake Park Ave & 35th St,,Lake Park Ave & 35th St,IN_SERVICE,1,In Service,False,19
0,10,1,Chicago,407,True,K3_FULL,15449,2019-05-16 13:56:30,41.82301523798,,-87.6265680185,60609,State St & Pershing Rd,,State St & Pershing Rd,IN_SERVICE,1,In Service,False,11
0,6,5,Chicago,408,True,K3_FULL,15450,2019-05-16 13:54:00,41.819102,,-87.643278,60609,Union Ave & Root St,,Union Ave & Root St,IN_SERVICE,1,In Service,False,11
0,3,8,Chicago,409,True,K3_FULL,15451,2019-05-16 13:57:47,41.81620767856,,-87.6348193497,60609,Shields Ave & 43rd St,,Shields Ave & 43rd St,IN_SERVICE,1,In Service,False,11
0,8,7,Chicago,410,True,K3_FULL,15452,2019-05-16 13:56:33,41.81665889302,,-87.6194124619,60653,Prairie Ave & 43rd St,,Prairie Ave & 43rd St,IN_SERVICE,1,In Service,False,15
0,4,7,Chicago,411,True,K3_FULL,15453,2019-05-16 13:55:49,41.80813391481,,-87.6456165545,60609,Halsted St & 47th Pl,,Halsted St & 47th Pl,IN_SERVICE,1,In Service,False,11
0,0,11,Chicago,412,True,K3_FULL,15454,2019-05-16 13:56:24,41.80931770924,,-87.633449288,60609,Princeton Ave & 47th St,,Princeton Ave & 47th St,IN_SERVICE,1,In Service,False,11
0,8,7,Chicago,413,True,K3_FULL,15455,2019-05-16 13:56:41,41.81409271048,,-87.5970051479,60653,Woodlawn Ave & Lake Park Ave,,Woodlawn Ave & Lake Park Ave,IN_SERVICE,1,In Service,False,15
0,2,13,Chicago,414,True,K3_FULL,15550,2019-05-16 13:54:46,41.870257,,-87.639474,60607,Canal St & Taylor St,990 S Canal St,Canal St & Taylor St,IN_SERVICE,1,In Service,False,15
0,2,9,Chicago,415,True,K3_FULL,15470,2019-05-16 13:54:56,41.80229465088,,-87.6180535802,60615,Calumet Ave & 51st St,,Calumet Ave & 51st St,IN_SERVICE,1,In Service,False,11
0,7,8,Chicago,416,True,K3_FULL,15471,2019-05-16 13:54:17,41.805772,,-87.592464,60615,Dorchester Ave & 49th St,,Dorchester Ave & 49th St,IN_SERVICE,1,In Service,False,15
0,12,7,Chicago,417,True,K3_FULL,15472,2019-05-16 13:54:48,41.802406,,-87.586924,60615,Cornell Ave & Hyde Park Blvd,,Cornell Ave & Hyde Park Blvd,IN_SERVICE,1,In Service,False,19
0,5,6,Chicago,418,True,K3_FULL,15473,2019-05-16 13:58:12,41.79933626261,,-87.6009581145,60615,Ellis Ave & 53rd St,,Ellis Ave & 53rd St,IN_SERVICE,1,In Service,False,11
0,6,8,Chicago,419,True,K3_FULL,15474,2019-05-16 13:58:02,41.79949429373,,-87.5864498959,60615,Lake Park Ave & 53rd St,,Lake Park Ave & 53rd St,IN_SERVICE,1,In Service,False,15
0,16,3,Chicago,420,True,K3_FULL,15475,2019-05-16 13:58:08,41.79430062054,,-87.6014497734,60637,Ellis Ave & 55th St,,Ellis Ave & 55th St,IN_SERVICE,1,In Service,False,19
0,8,4,Chicago,421,True,K3_FULL,15476,2019-05-16 13:57:36,41.79342945658,,-87.6158532619,60637,MLK Jr Dr & 56th St (*),,MLK Jr Dr & 56th St (*),IN_SERVICE,1,In Service,False,12
0,7,4,Chicago,422,True,K3_FULL,15477,2019-05-16 13:58:16,41.79156801058,,-87.6078521774,60637,DuSable Museum,,DuSable Museum,IN_SERVICE,1,In Service,False,11
0,23,8,Chicago,423,True,K3_FULL,15478,2019-05-16 13:53:41,41.791478,Off Street,-87.599861,60637,University Ave & 57th St,,University Ave & 57th St,IN_SERVICE,1,In Service,False,31
0,9,18,Chicago,424,True,K3_FULL,15479,2019-05-16 13:55:27,41.79172820953,,-87.583945009,60637,Museum of Science and Industry,,Museum of Science and Industry,IN_SERVICE,1,In Service,False,27
0,1,14,Chicago,425,True,K3_FULL,15480,2019-05-16 13:58:03,41.78794281287,,-87.5883151702,60637,Harper Ave & 59th St,,Harper Ave & 59th St,IN_SERVICE,1,In Service,False,15
0,14,5,Chicago,426,True,K3_FULL,15481,2019-05-16 13:55:10,41.78509714636,,-87.6010727606,60637,Ellis Ave & 60th St,,Ellis Ave & 60th St,IN_SERVICE,1,In Service,False,19
0,5,10,Chicago,427,True,K3_FULL,15482,2019-05-16 13:54:01,41.78059901484,,-87.606112388,60637,Cottage Grove Ave & 63rd St,,Cottage Grove Ave & 63rd St,IN_SERVICE,1,In Service,False,15
0,7,4,Chicago,428,True,K3_FULL,15484,2019-05-16 13:55:46,41.7804056457,,-87.5914159893,606037,Dorchester Ave & 63rd St,,Dorchester Ave & 63rd St,IN_SERVICE,1,In Service,False,11
0,7,4,Chicago,429,True,K3_FULL,15485,2019-05-16 13:53:56,41.77372095205,,-87.60563486,60637,Cottage Grove Ave & 67th St,,Cottage Grove Ave & 67th St,IN_SERVICE,1,In Service,False,11
0,3,8,Chicago,430,True,K3_FULL,15486,2019-05-16 13:54:14,41.78008063659,,-87.6159428567,60637,MLK Jr Dr & 63rd St,,MLK Jr Dr & 63rd St,IN_SERVICE,1,In Service,False,11
0,7,4,Chicago,431,True,K3_FULL,15487,2019-05-16 13:56:07,41.78414169317,,-87.6133078304,60637,Eberhart Ave & 61st St,,Eberhart Ave & 61st St,IN_SERVICE,1,In Service,False,11
0,13,6,Chicago,432,True,K3_FULL,15563,2019-05-16 13:56:15,42.009074,,-87.67419,60626,Clark St & Lunt Ave,,Clark St & Lunt Ave,IN_SERVICE,1,In Service,False,19
0,3,8,Chicago,433,True,K3_FULL,15680,2019-05-16 13:56:21,41.87359967462,,-87.7048707493,60612,Kedzie Ave & Harrison St,,Kedzie Ave & Harrison St,IN_SERVICE,1,In Service,False,11
0,0,18,Chicago,434,True,K3_FULL,15681,2019-05-16 13:58:09,41.86650148316,,-87.68469707,60608,Ogden Ave & Roosevelt Rd,,Ogden Ave & Roosevelt Rd,IN_SERVICE,1,In Service,False,19
0,3,8,Chicago,435,True,K3_FULL,15682,2019-05-16 13:56:27,41.86649278172,,-87.7064961757,60624,Kedzie Ave & Roosevelt Rd,,Kedzie Ave & Roosevelt Rd,IN_SERVICE,1,In Service,False,11
0,3,8,Chicago,436,True,K3_FULL,15683,2019-05-16 13:56:15,41.866624,,-87.694521,60608,Fairfield Ave & Roosevelt Rd,,Fairfield Ave & Roosevelt Rd,IN_SERVICE,1,In Service,False,11
0,5,11,Chicago,437,True,K3_FULL,15684,2019-05-16 13:52:03,41.861894,,-87.693511,60608,Washtenaw Ave & Ogden Ave (*),,Washtenaw Ave & Ogden Ave (*),IN_SERVICE,1,In Service,False,16
0,7,8,Chicago,438,True,K3_FULL,15685,2019-05-16 13:58:09,41.85420431327,,-87.7154058381,60623,Central Park Ave & Ogden Ave,,Central Park Ave & Ogden Ave,IN_SERVICE,1,In Service,False,15
0,6,5,Chicago,439,True,K3_FULL,15686,2019-05-16 13:56:19,41.85353363213,,-87.7050730318,60623,Kedzie Ave & 21st St,,Kedzie Ave & 21st St,IN_SERVICE,1,In Service,False,11
0,4,7,Chicago,440,True,K3_FULL,15687,2019-05-16 13:53:45,41.8481,,-87.715068,60623,Central Park Ave & 24th St,,Central Park Ave & 24th St,IN_SERVICE,1,In Service,False,11
0,2,9,Chicago,441,True,K3_FULL,15688,2019-05-16 13:55:57,41.84819094491,,-87.7054137458,60623,Kedzie Ave & 24th St,,Kedzie Ave & 24th St,IN_SERVICE,1,In Service,False,11
0,3,8,Chicago,442,True,K3_FULL,15689,2019-05-16 13:55:50,41.84910969176,,-87.6951398068,60608,California Ave & 23rd Pl,,California Ave & 23rd Pl,IN_SERVICE,1,In Service,False,11
0,5,2,Chicago,443,True,K3_FULL,15690,2019-05-16 13:54:25,41.84456684891,,-87.7159103081,60623,Millard Ave & 26th St,,Millard Ave & 26th St,IN_SERVICE,1,In Service,False,7
0,4,7,Chicago,444,True,K3_FULL,15691,2019-05-16 13:58:12,41.84447501366,,-87.7020130128,60623,Albany Ave & 26th St,,Albany Ave & 26th St,IN_SERVICE,1,In Service,False,11
0,6,5,Chicago,445,True,K3_FULL,15692,2019-05-16 13:58:00,41.84404003127,,-87.6952959227,60608,California Ave & 26th St,,California Ave & 26th St,IN_SERVICE,1,In Service,False,11
0,7,4,Chicago,446,True,K3_FULL,15693,2019-05-16 13:55:09,41.84151770807,,-87.6851314409,60608,Western Ave & 28th St,,Western Ave & 28th St,IN_SERVICE,1,In Service,False,11
0,11,4,Chicago,447,True,K3_FULL,15564,2019-05-16 13:53:47,42.00797192287,NA5,-87.6655023944,60626,Glenwood Ave & Morse Ave,,Glenwood Ave & Morse Ave,IN_SERVICE,1,In Service,False,15
0,4,7,Chicago,448,True,K3_FULL,15565,2019-05-16 13:57:32,42.00454962194,,-87.6806661451,60645,Warren Park East,,Warren Park East,IN_SERVICE,1,In Service,False,11
0,2,13,Chicago,449,True,K3_FULL,15566,2019-05-16 13:58:06,42.00445062934,,-87.6724024047,60626,Clark St & Columbia Ave,,Clark St & Columbia Ave,IN_SERVICE,1,In Service,False,15
0,6,5,Chicago,450,True,K3_FULL,15567,2019-05-16 13:57:30,42.001785,,-87.688829,60645,Warren Park West,,Warren Park West,IN_SERVICE,1,In Service,False,11
0,5,18,Chicago,451,True,K3_FULL,15568,2019-05-16 13:55:28,42.00104377979,,-87.6611982433,60626,Sheridan Rd & Loyola Ave,,Sheridan Rd & Loyola Ave,IN_SERVICE,1,In Service,False,23
0,8,3,Chicago,452,True,K3_FULL,15569,2019-05-16 13:54:19,41.99416136902,,-87.689438282,60659,Western Ave & Granville Ave,,Western Ave & Granville Ave,IN_SERVICE,1,In Service,False,11
0,6,9,Chicago,453,True,K3_FULL,15570,2019-05-16 13:58:05,41.99925182186,,-87.6713773393,60626,Clark St & Schreiber Ave,,Clark St & Schreiber Ave,IN_SERVICE,1,In Service,False,15
0,12,11,Chicago,454,True,K3_FULL,15571,2019-05-16 13:54:41,41.9947796884,,-87.6602845349,60660,Broadway & Granville Ave,,Broadway & Granville Ave,IN_SERVICE,1,In Service,False,23
0,4,7,Chicago,455,True,K3_FULL,15572,2019-05-16 13:57:05,41.99023602867,,-87.6933696402,60659,Maplewood Ave & Peterson Ave,,Maplewood Ave & Peterson Ave,IN_SERVICE,1,In Service,False,11
0,9,2,Chicago,456,True,K3_FULL,15573,2019-05-16 13:56:41,41.991178,,-87.683593,60659,2112 W Peterson Ave,,2112 W Peterson Ave,IN_SERVICE,1,In Service,False,11
0,8,11,Chicago,457,True,K3_FULL,15574,2019-05-16 13:58:04,41.990887,,-87.669758,60660,Clark St & Elmdale Ave,,Clark St & Elmdale Ave,IN_SERVICE,1,In Service,False,19
0,19,0,Chicago,458,True,K3_FULL,15575,2019-05-16 13:57:00,41.98974251144,,-87.6601406209,60660,Broadway & Thorndale Ave,,Broadway & Thorndale Ave,IN_SERVICE,1,In Service,False,19
0,9,10,Chicago,459,True,K3_FULL,15576,2019-05-16 13:56:54,41.98403669612,,-87.6523104689,60640,Lakefront Trail & Bryn Mawr Ave,,Lakefront Trail & Bryn Mawr Ave,IN_SERVICE,1,In Service,False,19
0,13,2,Chicago,460,True,K3_FULL,15577,2019-05-16 13:53:43,41.983593,,-87.669154,60660,Clark St & Bryn Mawr Ave,,Clark St & Bryn Mawr Ave,IN_SERVICE,1,In Service,False,15
0,12,3,Chicago,461,True,K3_FULL,15578,2019-05-16 13:57:05,41.9840446107,,-87.6602738295,60660,Broadway & Ridge Ave,,Broadway & Ridge Ave,IN_SERVICE,1,In Service,False,15
0,1,14,Chicago,462,True,K3_FULL,15579,2019-05-16 13:58:15,41.979762,,-87.67753,60640,Winchester (Ravenswood) Ave & Balmoral Ave,,Winchester (Ravenswood) Ave & Balmoral Ave,IN_SERVICE,1,In Service,False,15
0,10,9,Chicago,463,True,K3_FULL,15580,2019-05-16 13:57:36,41.9779966544,,-87.6680471047,60640,Clark St & Berwyn Ave,,Clark St & Berwyn Ave,IN_SERVICE,1,In Service,False,19
0,7,8,Chicago,464,True,K3_FULL,15581,2019-05-16 13:57:47,41.97561480459,,-87.6794590387,60625,Damen Ave & Foster Ave,,Damen Ave & Foster Ave,IN_SERVICE,1,In Service,False,15
0,2,21,Chicago,465,True,K3_FULL,15582,2019-05-16 13:54:25,41.9716,,-87.650154,60640,Marine Dr & Ainslie St,,Marine Dr & Ainslie St,IN_SERVICE,1,In Service,False,23
0,4,7,Chicago,466,True,K3_FULL,15583,2019-05-16 13:56:07,42.01213227742,,-87.6829126443,60645,Ridge Blvd & Touhy Ave,,Ridge Blvd & Touhy Ave,IN_SERVICE,1,In Service,False,11
0,5,10,Chicago,467,True,K3_FULL,15584,2019-05-16 13:57:46,42.0085943972,,-87.6904922389,60645,Western Ave & Lunt Ave,,Western Ave & Lunt Ave,IN_SERVICE,1,In Service,False,15
0,8,3,Chicago,468,True,K3_FULL,15585,2019-05-16 13:56:45,41.98366470886,,-87.6964225611,60659,Budlong Woods Library,,Budlong Woods Library,IN_SERVICE,1,In Service,False,11
0,8,7,Chicago,469,True,K3_FULL,15611,2019-05-16 13:54:15,41.98039423475,,-87.7161149615,60625,St. Louis Ave & Balmoral Ave,,St. Louis Ave & Balmoral Ave,IN_SERVICE,1,In Service,False,15
0,7,4,Chicago,470,True,K3_FULL,15612,2019-05-16 13:58:03,41.975672,,-87.709261,60625,Kedzie Ave & Foster Ave,,Kedzie Ave & Foster Ave,IN_SERVICE,1,In Service,False,11
0,9,6,Chicago,471,True,K3_FULL,15613,2019-05-16 13:54:24,41.97563272521,,-87.7014194389,60625,Francisco Ave & Foster Ave,,Francisco Ave & Foster Ave,IN_SERVICE,1,In Service,False,15
0,0,15,Chicago,472,True,K3_FULL,15614,2019-05-16 13:56:44,41.97491129677,,-87.6925025594,60625,Lincoln Ave & Winona St,,Lincoln Ave & Winona St,IN_SERVICE,1,In Service,False,15
0,5,10,Chicago,474,True,K3_FULL,15615,2019-05-16 13:55:53,41.96835449363,,-87.7118306675,60625,Christiana Ave & Lawrence Ave,,Christiana Ave & Lawrence Ave,IN_SERVICE,1,In Service,False,15
0,2,13,Chicago,475,True,K3_FULL,15616,2019-05-16 13:56:26,41.968987,,-87.696027,60625,Washtenaw Ave & Lawrence Ave,,Washtenaw Ave & Lawrence Ave,IN_SERVICE,1,In Service,False,15
0,0,15,Chicago,476,True,K3_FULL,15617,2019-05-16 13:53:56,41.96668636205,,-87.7080519806,60625,Kedzie Ave & Leland Ave,,Kedzie Ave & Leland Ave,IN_SERVICE,1,In Service,False,15
0,6,5,Chicago,477,True,K3_FULL,15618,2019-05-16 13:54:02,41.965875,,-87.700825,60625,Manor Ave & Leland Ave,,Manor Ave & Leland Ave,IN_SERVICE,1,In Service,False,11
0,5,10,Chicago,478,True,K3_FULL,15619,2019-05-16 13:54:57,41.96590013976,,-87.6936384935,60625,Rockwell St & Eastwood Ave,,Rockwell St & Eastwood Ave,IN_SERVICE,1,In Service,False,15
0,9,6,Chicago,479,True,K3_FULL,15620,2019-05-16 13:56:16,41.96115407569,,-87.7165690733,60618,Drake Ave & Montrose Ave,,Drake Ave & Montrose Ave,IN_SERVICE,1,In Service,False,15
0,8,3,Chicago,480,True,K3_FULL,15621,2019-05-16 13:56:32,41.961041,,-87.705866,60625,Albany Ave & Montrose Ave,Perm reloc of Kedzie & Montrose,Albany Ave & Montrose Ave,IN_SERVICE,1,In Service,False,11
0,10,5,Chicago,481,True,K3_FULL,15622,2019-05-16 13:54:12,41.961068,,-87.695439,60618,California Ave & Montrose Ave,,California Ave & Montrose Ave,IN_SERVICE,1,In Service,False,15
0,9,6,Chicago,482,True,K3_FULL,15623,2019-05-16 13:53:44,41.96152593287,,-87.6911650414,60625,Campbell Ave & Montrose Ave,,Campbell Ave & Montrose Ave,IN_SERVICE,1,In Service,False,15
0,4,15,Chicago,483,True,K3_FULL,15624,2019-05-16 13:53:56,41.953393,,-87.732002,60641,Avondale Ave & Irving Park Rd,,Avondale Ave & Irving Park Rd,IN_SERVICE,1,In Service,False,19
0,8,7,Chicago,484,True,K3_FULL,15625,2019-05-16 13:55:08,41.95400483876,,-87.7191281797,60618,Monticello Ave & Irving Park Rd,,Monticello Ave & Irving Park Rd,IN_SERVICE,1,In Service,False,15
0,4,11,Chicago,485,True,K3_FULL,15626,2019-05-16 13:57:17,41.95358617895,,-87.7093107999,60618,Sawyer Ave & Irving Park Rd,,Sawyer Ave & Irving Park Rd,IN_SERVICE,1,In Service,False,15
0,10,5,Chicago,486,True,K3_FULL,15627,2019-05-16 13:54:31,41.95434085219,,-87.6860796243,60618,Oakley Ave & Irving Park Rd,,Oakley Ave & Irving Park Rd,IN_SERVICE,1,In Service,False,15
0,6,13,Chicago,487,True,K3_FULL,15628,2019-05-16 13:57:01,41.95216219326,,-87.698051113,60618,California Ave & Byron St,,California Ave & Byron St,IN_SERVICE,1,In Service,False,19
0,3,8,Chicago,488,True,K3_FULL,15629,2019-05-16 13:53:54,41.946264,,-87.731023,60641,Pulaski Rd & Eddy St (Temp),,Pulaski Rd & Eddy St (Temp),IN_SERVICE,1,In Service,False,11
0,6,9,Chicago,489,True,K3_FULL,15630,2019-05-16 13:55:36,41.947326,Central Park Ave & Addison St,-87.717582,60618,Drake Ave & Addison St,,Drake Ave & Addison St,IN_SERVICE,1,In Service,False,15
0,9,6,Chicago,490,True,K3_FULL,15631,2019-05-16 13:56:57,41.94524356848,,-87.7066499009,60618,Troy St & Elston Ave,,Troy St & Elston Ave,IN_SERVICE,1,In Service,False,15
0,8,7,Chicago,491,True,K3_FULL,15632,2019-05-16 13:54:33,41.9466358306,,-87.694614758,60618,Talman Ave & Addison St,,Talman Ave & Addison St,IN_SERVICE,1,In Service,False,15
0,6,9,Chicago,492,True,K3_FULL,15633,2019-05-16 13:57:34,41.946655,,-87.683359,60618,Leavitt St & Addison St,,Leavitt St & Addison St,IN_SERVICE,1,In Service,False,15
0,8,3,Chicago,493,True,K3_FULL,15634,2019-05-16 13:58:05,41.943034,,-87.687288,60618,Western Ave & Roscoe St,,Western Ave & Roscoe St,IN_SERVICE,1,In Service,False,11
0,6,9,Chicago,494,True,K3_FULL,15635,2019-05-16 13:57:36,41.98239708485,,-87.7089225202,60625,Kedzie Ave & Bryn Mawr Ave,,Kedzie Ave & Bryn Mawr Ave,IN_SERVICE,1,In Service,False,15
0,4,7,Chicago,495,True,K3_FULL,15636,2019-05-16 13:54:42,41.96110801623,,-87.7289701012,60630,Keystone Ave & Montrose Ave,,Keystone Ave & Montrose Ave,IN_SERVICE,1,In Service,False,11
0,4,7,Chicago,496,True,K3_FULL,15640,2019-05-16 13:58:18,41.939408,,-87.723574,60618,Avers Ave & Belmont Ave,,Avers Ave & Belmont Ave,IN_SERVICE,1,In Service,False,11
0,3,12,Chicago,497,True,K3_FULL,15641,2019-05-16 13:56:18,41.939398,,-87.711561,60618,Kimball Ave & Belmont Ave,,Kimball Ave & Belmont Ave,IN_SERVICE,1,In Service,False,15
0,6,13,Chicago,498,True,K3_FULL,15642,2019-05-16 13:58:02,41.93842879148,,-87.698007756,60618,California Ave & Fletcher St,,California Ave & Fletcher St,IN_SERVICE,1,In Service,False,19
0,1,14,Chicago,499,True,K3_FULL,15643,2019-05-16 13:57:02,41.93058537138,,-87.7237773635,60647,Kosciuszko Park,,Kosciuszko Park,IN_SERVICE,1,In Service,False,15
0,3,12,Chicago,500,True,K3_FULL,15644,2019-05-16 13:57:00,41.93533728263,,-87.7168892935,60618,Central Park Ave & Elbridge Ave,,Central Park Ave & Elbridge Ave,IN_SERVICE,1,In Service,False,15
0,6,9,Chicago,501,True,K3_FULL,15645,2019-05-16 13:55:05,41.93190196886,,-87.7011951301,60647,Richmond St & Diversey Ave,,Richmond St & Diversey Ave,IN_SERVICE,1,In Service,False,15
0,9,6,Chicago,502,True,K3_FULL,15646,2019-05-16 13:56:39,41.92669,,-87.697668,60647,California Ave & Altgeld St,,California Ave & Altgeld St,IN_SERVICE,1,In Service,False,15
0,1,14,Chicago,503,True,K3_FULL,15647,2019-05-16 13:55:20,41.924398819,,-87.7154410355,60647,Drake Ave & Fullerton Ave,,Drake Ave & Fullerton Ave,IN_SERVICE,1,In Service,False,15
0,1,14,Chicago,504,True,K3_FULL,15648,2019-05-16 13:55:37,41.92463247165,,-87.6893070063,60647,Campbell Ave & Fullerton Ave,,Campbell Ave & Fullerton Ave,IN_SERVICE,1,In Service,False,15
0,10,5,Chicago,505,True,K3_FULL,15649,2019-05-16 13:56:30,41.92409085038,,-87.6764600747,60614,Winchester Ave & Elston Ave,,Winchester Ave & Elston Ave,IN_SERVICE,1,In Service,False,15
0,2,13,Chicago,506,True,K3_FULL,15650,2019-05-16 13:55:08,41.91718375155,,-87.7103566522,60647,Spaulding Ave & Armitage Ave,,Spaulding Ave & Armitage Ave,IN_SERVICE,1,In Service,False,15
0,5,14,Chicago,507,True,K3_FULL,15651,2019-05-16 13:58:06,41.91751339399,,-87.7018089555,60647,Humboldt Blvd & Armitage Ave,,Humboldt Blvd & Armitage Ave,IN_SERVICE,1,In Service,False,19
0,10,5,Chicago,508,True,K3_FULL,15652,2019-05-16 13:55:29,41.90965687563,,-87.7166319516,60647,Central Park Ave & North Ave,,Central Park Ave & North Ave,IN_SERVICE,1,In Service,False,15
0,4,11,Chicago,509,True,K3_FULL,15653,2019-05-16 13:55:42,41.90976930169,,-87.7052804871,60651,Troy St & North Ave,,Troy St & North Ave,IN_SERVICE,1,In Service,False,15
0,2,9,Chicago,510,True,K3_FULL,15654,2019-05-16 13:56:20,41.90270659438,,-87.709219571,60651,Spaulding Ave & Division St,,Spaulding Ave & Division St,IN_SERVICE,1,In Service,False,11
0,0,15,Chicago,511,True,K3_FULL,15655,2019-05-16 13:53:43,41.91402671273,,-87.705126462,60647,Albany Ave & Bloomingdale Ave,,Albany Ave & Bloomingdale Ave,IN_SERVICE,1,In Service,False,15
0,2,9,Chicago,514,True,K3_FULL,16801,2019-05-16 13:56:51,42.019276,,-87.68452,60645,Ridge Blvd & Howard St,,Ridge Blvd & Howard St,IN_SERVICE,1,In Service,False,11
0,5,14,Chicago,515,True,K3_FULL,16802,2019-05-16 13:54:02,42.019159,,-87.673573,60626,Paulina St & Howard St,,Paulina St & Howard St,IN_SERVICE,1,In Service,False,19
0,4,7,Chicago,517,True,K3_FULL,16803,2019-05-16 13:57:23,42.015963,,-87.675005,60626,Clark St & Jarvis Ave,,Clark St & Jarvis Ave,IN_SERVICE,1,In Service,False,11
0,5,6,Chicago,518,True,K3_FULL,16901,2019-05-16 13:57:41,41.885502,,-87.716866,0,Conservatory Dr & Lake St,,Conservatory Dr & Lake St,IN_SERVICE,1,In Service,False,11
0,4,7,Chicago,519,True,K3_FULL,16804,2019-05-16 13:54:32,42.016977,,-87.677725,60626,Wolcott Ave & Fargo Ave,,Wolcott Ave & Fargo Ave,IN_SERVICE,1,In Service,False,11
0,10,9,Chicago,520,True,K3_FULL,16805,2019-05-16 13:54:02,42.015962,,-87.66857,60626,Greenview Ave & Jarvis Ave,,Greenview Ave & Jarvis Ave,IN_SERVICE,1,In Service,False,19
0,4,7,Chicago,522,True,K3_FULL,16806,2019-05-16 13:56:13,42.019537,,-87.669563,60626,Bosworth Ave & Howard St,,Bosworth Ave & Howard St,IN_SERVICE,1,In Service,False,11
0,4,11,Chicago,523,True,K3_FULL,16807,2019-05-16 13:57:23,42.021019,,-87.665086,60626,Eastlake Ter & Rogers Ave,,Eastlake Ter & Rogers Ave,IN_SERVICE,1,In Service,False,15
0,3,4,Chicago,524,True,K3_FULL,16921,2019-05-16 13:56:26,41.894887,,-87.774704,60651,Austin Blvd & Chicago Ave,,Austin Blvd & Chicago Ave,IN_SERVICE,1,In Service,False,7
0,8,7,Chicago,525,True,K3_FULL,16809,2019-05-16 13:57:10,42.012701,,-87.666058,60626,Glenwood Ave & Touhy Ave,,Glenwood Ave & Touhy Ave,IN_SERVICE,1,In Service,False,15
0,2,9,Chicago,526,True,K3_FULL,16810,2019-05-16 13:56:22,42.012342,,-87.688243,60645,Oakley Ave & Touhy Ave,,Oakley Ave & Touhy Ave,IN_SERVICE,1,In Service,False,11
0,3,12,Chicago,527,True,K3_FULL,16811,2019-05-16 13:55:33,42.018901,,-87.690048,60645,Western Ave & Howard St,,Western Ave & Howard St,IN_SERVICE,1,In Service,False,15
0,4,7,Chicago,528,True,K3_FULL,16902,2019-05-16 13:57:55,41.885409,,-87.726491,60624,Pulaski Rd & Lake St,,Pulaski Rd & Lake St,IN_SERVICE,1,In Service,False,11
0,4,7,Chicago,529,True,K3_FULL,16903,2019-05-16 13:54:49,41.886841,,-87.745261,0,Cicero Ave & Lake St,,Cicero Ave & Lake St,IN_SERVICE,1,In Service,False,11
0,3,8,Chicago,530,True,K3_FULL,16904,2019-05-16 13:57:40,41.887832,,-87.755527,0,Laramie Ave & Kinzie St,,Laramie Ave & Kinzie St,IN_SERVICE,1,In Service,False,11
0,4,7,Chicago,531,True,K3_FULL,16905,2019-05-16 13:54:47,41.887664,,-87.765469,60644,Central Ave & Lake St,,Central Ave & Lake St,IN_SERVICE,1,In Service,False,11
0,2,9,Chicago,532,True,K3_FULL,16906,2019-05-16 13:56:34,41.887919,,-87.774446,0,Austin Blvd & Lake St,,Austin Blvd & Lake St,IN_SERVICE,1,In Service,False,11
0,3,8,Chicago,533,True,K3_FULL,16907,2019-05-16 13:57:23,41.875679,,-87.71547,0,Central Park Blvd & 5th Ave,,Central Park Blvd & 5th Ave,IN_SERVICE,1,In Service,False,11
0,4,7,Chicago,534,True,K3_FULL,16908,2019-05-16 13:56:05,41.88085,,-87.727907,60624,Karlov Rd & Madison St,,Karlov Ave & Madison St,IN_SERVICE,1,In Service,False,11
0,4,7,Chicago,535,True,K3_FULL,16909,2019-05-16 13:55:53,41.874325,,-87.725704,60624,Pulaski Rd & Congress Pkwy,,Pulaski Rd & Congress Pkwy,IN_SERVICE,1,In Service,False,11
0,4,7,Chicago,536,True,K3_FULL,16910,2019-05-16 13:53:54,41.885928,,-87.73541,0,Kostner Ave & Lake St,,Kostner Ave & Lake St,IN_SERVICE,1,In Service,False,11
0,5,6,Chicago,537,True,K3_FULL,16911,2019-05-16 13:57:16,41.880708,,-87.741018,0,Kenton Ave & Madison St,,Kenton Ave & Madison St,IN_SERVICE,1,In Service,False,11
0,2,9,Chicago,538,True,K3_FULL,16912,2019-05-16 13:56:54,41.872131,,-87.746619,0,Cicero Ave & Flournoy St,,Cicero Ave & Flournoy St,IN_SERVICE,1,In Service,False,11
0,3,8,Chicago,539,True,K3_FULL,16913,2019-05-16 13:57:20,41.877613,,-87.745405,0,Cicero Ave & Quincy St,,Cicero Ave & Quincy St,IN_SERVICE,1,In Service,False,11
0,3,8,Chicago,540,True,K3_FULL,16914,2019-05-16 13:56:33,41.880207,,-87.755337,0,Laramie Ave & Madison St,,Laramie Ave & Madison St,IN_SERVICE,1,In Service,False,11
0,3,8,Chicago,541,True,K3_FULL,16915,2019-05-16 13:57:27,41.872993,,-87.764499,0,Central Ave & Harrison St,,Central Ave & Harrison St,IN_SERVICE,1,In Service,False,11
0,3,8,Chicago,542,True,K3_FULL,16916,2019-05-16 13:56:29,41.880121,,-87.763238,0,Central Ave & Madison St,,Central Ave & Madison St,IN_SERVICE,1,In Service,False,11
0,4,7,Chicago,543,True,K3_FULL,16917,2019-05-16 13:54:45,41.875806,,-87.755285,0,Laramie Ave & Gladys Ave,,Laramie Ave & Gladys Ave,IN_SERVICE,1,In Service,False,11
0,6,5,Chicago,544,True,K3_FULL,16918,2019-05-16 13:56:36,41.880281,,-87.774453,60644,Austin Blvd & Madison St,,Austin Blvd & Madison St,IN_SERVICE,1,In Service,False,11
0,4,7,Chicago,545,True,K3_FULL,16919,2019-05-16 13:54:26,41.877917,,-87.735737,0,Kostner Ave & Adams St,,Kostner Ave & Adams St,IN_SERVICE,1,In Service,False,11
0,8,3,Chicago,546,True,K3_FULL,16931,2019-05-16 13:54:54,41.823192,,-87.676597,0,Damen Ave & Pershing Rd,,Damen Ave & Pershing Rd,IN_SERVICE,1,In Service,False,11
0,4,7,Chicago,547,True,K3_FULL,16932,2019-05-16 13:54:05,41.823465,,-87.665577,0,Ashland Ave & Pershing Rd,,Ashland Ave & Pershing Rd,IN_SERVICE,1,In Service,False,11
0,3,4,Chicago,548,True,K3_FULL,16933,2019-05-16 13:55:06,41.823613,,-87.650931,0,Morgan St & Pershing Rd,,Morgan St & Pershing Rd,IN_SERVICE,1,In Service,False,7
0,2,9,Chicago,549,True,K3_FULL,16934,2019-05-16 13:55:29,41.813996,,-87.666589,0,Marshfield Ave & 44th St,,Marshfield Ave & 44th St,IN_SERVICE,1,In Service,False,11
0,4,7,Chicago,550,True,K3_FULL,16920,2019-05-16 13:54:00,41.894958,,-87.764902,60651,Central Ave & Chicago Ave,,Central Ave & Chicago Ave,IN_SERVICE,1,In Service,False,11
0,7,4,Chicago,551,True,K3_FULL,16936,2019-05-16 13:56:11,41.808227,,-87.67718,60609,Hoyne Ave & 47th St,,Hoyne Ave & 47th St,IN_SERVICE,1,In Service,False,11
0,6,5,Chicago,552,True,K3_FULL,16937,2019-05-16 13:54:16,41.80887,,-87.66454,60609,Ashland Ave & McDowell Ave,,Ashland Ave & McDowell Ave,IN_SERVICE,1,In Service,False,11
0,8,3,Chicago,553,True,K3_FULL,16938,2019-05-16 13:57:03,41.80839,,-87.656526,60609,Elizabeth St & 47th St,,Elizabeth St & 47th St,IN_SERVICE,1,In Service,False,11
0,1,6,Chicago,554,True,K3_FULL,16939,2019-05-16 13:58:15,41.800908,,-87.674684,60609,Damen Ave & 51st St,,Damen Ave & 51st St,IN_SERVICE,1,In Service,False,7
0,4,7,Chicago,555,True,K3_FULL,16940,2019-05-16 13:54:23,41.803023,,-87.664699,60609,Ashland Ave & 50th St,,Ashland Ave & 50th St,IN_SERVICE,1,In Service,False,11
0,4,3,Chicago,556,True,K3_FULL,16941,2019-05-16 13:56:56,41.799659,,-87.657195,60609,Throop St & 52nd St,,Throop St & 52nd St,IN_SERVICE,1,In Service,False,7
0,4,7,Chicago,557,True,K3_FULL,16942,2019-05-16 13:55:55,41.794087,,-87.675478,60609,Seeley Ave & Garfield Blvd,,Seeley Ave & Garfield Blvd,IN_SERVICE,1,In Service,False,11
0,4,7,Chicago,558,True,K3_FULL,16943,2019-05-16 13:54:29,41.792822,,-87.664429,60636,Ashland Ave & Garfield Blvd,,Ashland Ave & Garfield Blvd,IN_SERVICE,1,In Service,False,11
0,4,7,Chicago,559,True,K3_FULL,16944,2019-05-16 13:55:34,41.794228,,-87.655073,60609,Racine Ave & Garfield Blvd,,Racine Ave & Garfield Blvd,IN_SERVICE,1,In Service,False,11
0,3,8,Chicago,560,True,K3_FULL,16945,2019-05-16 13:58:01,41.786833,,-87.666215,60636,Marshfield Ave & 59th St,,Marshfield Ave & 59th St,IN_SERVICE,1,In Service,False,11
0,3,8,Chicago,561,True,K3_FULL,16946,2019-05-16 13:55:42,41.78602,,-87.674167,60636,Damen Ave & 59th St,,Damen Ave & 59th St,IN_SERVICE,1,In Service,False,11
0,4,7,Chicago,562,True,K3_FULL,16947,2019-05-16 13:55:43,41.783189,,-87.654372,60621,Racine Ave & 61st St,,Racine Ave & 61st St,IN_SERVICE,1,In Service,False,11
0,5,6,Chicago,563,True,K3_FULL,16948,2019-05-16 13:55:28,41.779374,,-87.664843,60636,Ashland Ave & 63rd St,,Ashland Ave & 63rd St,IN_SERVICE,1,In Service,False,11
0,3,8,Chicago,564,True,K3_FULL,16949,2019-05-16 13:54:28,41.775393,,-87.654308,60636,Racine Ave & 65th St,,Racine Ave & 65th St,IN_SERVICE,1,In Service,False,11
0,2,5,Chicago,565,True,K3_FULL,16950,2019-05-16 13:57:21,41.774074,,-87.663815,60636,Ashland Ave & 66th St,,Ashland Ave & 66th St,IN_SERVICE,1,In Service,False,7
0,6,5,Chicago,566,True,K3_FULL,16951,2019-05-16 13:55:38,41.768726,,-87.664069,60636,Ashland Ave & 69th St,,Ashland Ave & 69th St,IN_SERVICE,1,In Service,False,11
0,3,8,Chicago,567,True,K3_FULL,16952,2019-05-16 13:56:14,41.768938,,-87.652934,60621,May St & 69th St,,May St & 69th St,IN_SERVICE,1,In Service,False,11
0,5,6,Chicago,568,True,K3_FULL,16953,2019-05-16 13:55:30,41.763462,,-87.637297,60621,Normal Ave & 72nd St,,Normal Ave & 72nd St,IN_SERVICE,1,In Service,False,11
0,2,9,Chicago,569,True,K3_FULL,16961,2019-05-16 13:55:51,41.75916,,-87.595751,60619,Woodlawn Ave & 75th St,,Woodlawn Ave & 75th St,IN_SERVICE,1,In Service,False,11
0,2,9,Chicago,570,True,K3_FULL,16962,2019-05-16 13:56:59,41.758308,,-87.606685,60619,Evans Ave & 75th St,,Evans Ave & 75th St,IN_SERVICE,1,In Service,False,11
0,3,8,Chicago,571,True,K3_FULL,16963,2019-05-16 13:54:33,41.758361,,-87.614138,60619,Vernon Ave & 75th St,,Vernon Ave & 75th St,IN_SERVICE,1,In Service,False,11
0,4,7,Chicago,572,True,K3_FULL,16964,2019-05-16 13:54:53,41.756971,,-87.624621,60619,State St & 76th St,,State St & 76th St,IN_SERVICE,1,In Service,False,11
0,1,10,Chicago,573,True,K3_FULL,16965,2019-05-16 13:55:56,41.750794,,-87.624424,60619,State St & 79th St,,State St & 79th St,IN_SERVICE,1,In Service,False,11
0,6,5,Chicago,574,True,K3_FULL,16966,2019-05-16 13:58:19,41.751345,,-87.612568,60619,Eberhart (Vernon) Ave & 79th St,,Eberhart (Vernon) Ave & 79th St,IN_SERVICE,1,In Service,False,11
0,4,7,Chicago,575,True,K3_FULL,16967,2019-05-16 13:56:25,41.753174,,-87.605026,60619,Cottage Grove Ave & 78th St,,Cottage Grove Ave & 78th St,IN_SERVICE,1,In Service,False,11
0,5,6,Chicago,576,True,K3_FULL,16968,2019-05-16 13:56:02,41.751294,,-87.597552,60619,Greenwood Ave & 79th St,,Greenwood Ave & 79th St,IN_SERVICE,1,In Service,False,11
0,4,7,Chicago,577,True,K3_FULL,16969,2019-05-16 13:55:06,41.751173,,-87.585337,60617,Stony Island Ave & South Chicago Ave,,Stony Island Ave & South Chicago Ave,IN_SERVICE,1,In Service,False,11
0,4,7,Chicago,578,True,K3_FULL,16970,2019-05-16 13:56:51,41.751785,,-87.578496,60649,Bennett Ave & 79th St,,Bennett Ave & 79th St,IN_SERVICE,1,In Service,False,11
0,6,5,Chicago,579,True,K3_FULL,16971,2019-05-16 13:56:33,41.75182,,-87.565211,60649,Phillips Ave & 79th St,,Phillips Ave & 79th St,IN_SERVICE,1,In Service,False,11
0,3,8,Chicago,580,True,K3_FULL,16972,2019-05-16 13:56:08,41.751731,,-87.552812,60617,Exchange Ave & 79th St,,Exchange Ave & 79th St,IN_SERVICE,1,In Service,False,11
0,7,4,Chicago,581,True,K3_FULL,16973,2019-05-16 13:57:02,41.744615,,-87.551208,60617,Commercial Ave & 83rd St,,Commercial Ave & 83rd St,IN_SERVICE,1,In Service,False,11
0,6,5,Chicago,582,True,K3_FULL,16974,2019-05-16 13:54:26,41.744531,On-Street,-87.56506,60647,Phillips Ave & 83rd St,,Phillips Ave & 83rd St,IN_SERVICE,1,In Service,False,11
0,4,7,Chicago,583,True,K3_FULL,16975,2019-05-16 13:56:00,41.746559,,-87.586005,60617,Stony Island Ave & 82nd St,,Stony Island Ave & 82nd St,IN_SERVICE,1,In Service,False,11
0,3,8,Chicago,584,True,K3_FULL,16976,2019-05-16 13:57:53,41.744123,,-87.599034,60619,Ellis Ave & 83rd St,,Ellis Ave & 83rd St,IN_SERVICE,1,In Service,False,11
0,4,7,Chicago,585,True,K3_FULL,16977,2019-05-16 13:57:51,41.744053,,-87.604786,60619,Cottage Grove Ave & 83rd St,,Cottage Grove Ave & 83rd St,IN_SERVICE,1,In Service,False,11
0,5,6,Chicago,586,True,K3_FULL,16978,2019-05-16 13:56:57,41.743116,,-87.6148,60619,MLK Jr Dr & 83rd St,,MLK Jr Dr & 83rd St,IN_SERVICE,1,In Service,False,11
0,4,7,Chicago,587,True,K3_FULL,16979,2019-05-16 13:57:28,41.743316,,-87.622849,60619,Wabash Ave & 83rd St,,Wabash Ave & 83rd St,IN_SERVICE,1,In Service,False,11
0,2,9,Chicago,588,True,K3_FULL,16980,2019-05-16 13:56:26,41.743921,,-87.575225,60617,South Chicago Ave & 83rd St,,South Chicago Ave & 83rd St,IN_SERVICE,1,In Service,False,11
0,5,6,Chicago,589,True,K3_FULL,16991,2019-05-16 13:58:12,41.954468,,-87.749594,60641,Milwaukee Ave & Cuyler Ave,,Milwaukee Ave & Cuyler Ave,IN_SERVICE,1,In Service,False,11
0,7,4,Chicago,590,True,K3_FULL,16992,2019-05-16 13:54:02,41.953733,,-87.740569,60641,Kilbourn Ave & Irving Park Rd,,Kilbourn Ave & Irving Park Rd,IN_SERVICE,1,In Service,False,11
0,7,8,Chicago,591,True,K3_FULL,16994,2019-05-16 13:56:44,41.948818,,-87.74002,60641,Kilbourn Ave & Milwaukee Ave,,Kilbourn Ave & Milwaukee Ave,IN_SERVICE,1,In Service,False,15
0,6,5,Chicago,592,True,K3_FULL,16001,2019-05-16 13:57:53,41.960631,,-87.745359,60641,Knox Ave & Montrose Ave,,Knox Ave & Montrose Ave,IN_SERVICE,1,In Service,False,11
0,4,7,Chicago,593,True,K3_FULL,16005,2019-05-16 13:55:40,41.787539,,-87.644874,60621,Halsted St & 59th St,,Halsted St & 59th St,IN_SERVICE,1,In Service,False,11
0,4,7,Chicago,594,True,K3_FULL,16008,2019-05-16 13:57:49,41.805661,,-87.683392,60609,Western Blvd & 48th Pl,,Western Blvd & 48th Pl,IN_SERVICE,1,In Service,False,11
0,4,7,Chicago,595,True,K3_FULL,16009,2019-05-16 13:56:21,41.736646,,-87.622634,60619,Wabash Ave & 87th St,,Wabash Ave & 87th St,IN_SERVICE,1,In Service,False,11
0,2,13,Evanston,596,True,K3_FULL,E001,2019-05-16 13:57:10,42.048214,,-87.683485,0,Benson Ave & Church St,,Benson Ave & Church St,IN_SERVICE,1,In Service,False,15
0,1,14,Evanston,597,True,K3_FULL,E002,2019-05-16 13:55:07,42.032562,,-87.679101,0,Chicago Ave & Washington St,,Chicago Ave & Washington St,IN_SERVICE,1,In Service,False,15
0,9,6,Evanston,598,True,K3_FULL,E003,2019-05-16 13:54:03,42.025784,,-87.684107,60202,Elmwood Ave & Austin St,,Elmwood Ave & Austin St,IN_SERVICE,1,In Service,False,15
0,11,4,Evanston,599,True,K3_FULL,E004,2019-05-16 13:54:48,42.039742,,-87.699413,60202,Valli Produce - Evanston Plaza,,Valli Produce - Evanston Plaza,IN_SERVICE,1,In Service,False,15
0,1,14,Evanston,600,True,K3_FULL,E005,2019-05-16 13:55:41,42.048308,,-87.698224,0,Dodge Ave & Church St,,Dodge Ave & Church St,IN_SERVICE,1,In Service,False,15
0,9,6,Evanston,601,True,K3_FULL,E006,2019-05-16 13:54:20,42.063598,,-87.69873,0,Central St Metra,,Central St Metra,IN_SERVICE,1,In Service,False,15
0,2,13,Evanston,602,True,K3_FULL,E007,2019-05-16 13:55:26,42.064313,,-87.686152,60201,Central St & Girard Ave,,Central St & Girard Ave,IN_SERVICE,1,In Service,False,15
0,15,0,Evanston,603,True,K3_FULL,E008,2019-05-16 13:54:15,42.050491,,-87.677821,60201,Chicago Ave & Sheridan Rd,,Chicago Ave & Sheridan Rd,IN_SERVICE,1,In Service,False,15
0,13,2,Evanston,604,True,K3_FULL,E009,2019-05-16 13:58:18,42.058239,,-87.677432,60208,Sheridan Rd & Noyes St (NU),,Sheridan Rd & Noyes St (NU),IN_SERVICE,1,In Service,False,15
0,14,1,Evanston,605,True,K3_FULL,E010,2019-05-16 13:56:27,42.052939,,-87.673447,60208,University Library (NU),,University Library (NU),IN_SERVICE,1,In Service,False,15
0,2,9,Chicago,619,True,K3_FULL,16010,2019-05-16 13:56:07,41.92459,,-87.72785,60639,Keystone Ave & Fullerton Ave,,Keystone Ave & Fullerton Ave,IN_SERVICE,1,In Service,False,11
0,0,15,Chicago,620,True,K3_FULL,16011,2019-05-16 13:54:32,41.898203,,-87.637536,60610,Orleans St & Chestnut St (NEXT Apts),,Orleans St & Chestnut St (NEXT Apts),IN_SERVICE,1,In Service,False,15
0,3,12,Chicago,621,True,K3_FULL,18062,2019-05-16 13:55:16,41.884114,,-87.654264,60607,Aberdeen St & Randolph St,,Aberdeen St & Randolph St,IN_SERVICE,1,In Service,False,15
0,3,12,Chicago,622,True,K3_FULL,17660,2019-05-16 13:55:47,41.900363,,-87.696704,60622,California Ave & Cortez St,,California Ave & Cortez St,IN_SERVICE,1,In Service,False,15
0,2,41,Chicago,623,True,K3_FULL,17541,2019-05-16 13:55:16,41.872773,,-87.623981,60605,Michigan Ave & 8th St,,Michigan Ave & 8th St,IN_SERVICE,1,In Service,False,43
0,4,12,Chicago,624,True,K3_FULL,17013,2019-05-16 13:55:46,41.876268,417 S Dearborn St,-87.629155,60605,Dearborn St & Van Buren St (*),,Dearborn St & Van Buren St (*),IN_SERVICE,1,In Service,False,16
0,6,9,Evanston,625,True,K3_FULL,E011,2019-05-16 13:56:01,42.041691,,-87.680687,60201,Chicago Ave & Dempster St,1312 Chicago Ave,Chicago Ave & Dempster St,IN_SERVICE,1,In Service,False,15
0,2,17,Chicago,626,True,K3_FULL,17043,2019-05-16 13:55:42,41.867491,,-87.63219,60605,Delano Ct & Roosevelt Rd,Roosevelt Collection Shops,Delano Ct & Roosevelt Rd,IN_SERVICE,1,In Service,False,19
0,18,2,Chicago,627,True,K3_FULL,18064,2019-05-16 13:55:40,41.894877,,-87.632326,60654,LaSalle Dr & Huron St(*),,LaSalle Dr & Huron St (*),IN_SERVICE,1,In Service,False,20
0,10,13,Chicago,628,True,K3_FULL,18067,2019-05-16 13:58:14,41.91461,Off-Street,-87.667968,60622,Walsh Park,Walsh Park,Walsh Park,IN_SERVICE,1,In Service,False,23
0,12,3,Chicago,630,True,K3_FULL,18015,2019-05-16 13:55:53,41.96108,On-Street,-87.73569,60630,Kildare Ave & Montrose Ave,,Kildare Ave & Montrose Ave,IN_SERVICE,1,In Service,False,15
0,9,10,Chicago,631,True,K3_FULL,18045,2019-05-16 13:57:16,41.877618,,-87.673895,60612,Malcolm X College,,Malcolm X College,IN_SERVICE,1,In Service,False,19
